Longitude,Latitude,Name,Location
-92.875,42.953,Ackley Creek County Park,Marble Rock
-93.724,41.738,Acorn Valley - Saylorville Lake,Des Moines
-94.643,41.498,Adair City Park,Adair
-92.21,43.12,Adolph Munson Park,New Hampton
-92.348,43.09,Airport Lake Park,New Hampton
-96.556,42.832,Akron City Park,Akron
-94.926,41.711,Albert the Bull CG,Audubon
-92.313,42.88,Alcock Park,Frederika
-96.005,42.998,Alton Roadside Park,Alton
-94.247,43.052,Ambrose Call State Park,Algona
-93.609,42.026,Ames Bandshell City Park,Ames
-95.131,43.366,Arnolds Park City Park,Arnolds Park
-95.59,41.432,Arrowhead Park,Neola
-93.289,41.814,Ashton Wildwood Park,Baxter
-91.968,40.768,Austin County Park,Keosauqua
-91.56,42.616,Backbone State Park,Dundee
-91.411,42.447,Baileys Ford,Manchester.
-90.953,42.56,Bankston Park,Holy Cross
-92.787,42.583,Beaver Meadows Co Park,Parkersburg
-93.236,42.768,Beeds Lake State Park,Hampton
-90.423,42.247,Bellevue State Park,Bellevue
-93.889,42.34,Bells Mills County Park,Stratford
-92.151,41.386,Belva - Deer Rec Area,Sigourney
-90.922,41.746,Bennett Park,Bennett
-91.918,42.162,Benton City  -  Fry Area,Vinton
-91.852,40.725,Bentonsport,Bentonsport
-93.386,42.526,Bessman-Kemp Co Park,Alden
-91.226,40.952,Big Hollow Creek Park,Pleasant Grove
-92.434,42.556,Big Woods Lake,Cedar Falls
-96.326,42.306,Bigelow County Park,Salix
-92.478,42.563,Black Hawk County Park,Cedar Falls
-95.017,42.292,Black Hawk State Park,Lake View
-91.212,43.044,Bloody Run County Park,Marquette
-93.685,41.701,Bob Shetler - Saylorville Lake,Des Moines
-93.398,40.708,Bobwhite State Park,Allerton
-95.363,41.396,Botna Bend County Park,Hancock
-93.04,42.236,Brekke Memorial Park,Union
-93.012,40.876,Bridgeview - Rathbun Lake,Moravia
-93.802,42.432,Briggs Woods Park,Webster City
-91.85,41.224,Brinton Timber,Brighton
-96.326,42.306,Browns Lake  -  Bigelow Park,Salix
-96.326,42.306,Browns Lake Bigelow Park,Salix
-93.983,42.394,Brushy Creek  State Rec Area,Lehigh
-92.869,40.85,Buck Creek - Rathbun Lake,Moravia
-91.209,42.879,Buck Creek County Park,
-95.338,42.884,Buena Vista Co Park,Linn Grove
-91.687,42.471,Buffalo Creek Area,Winthrop
-91.542,42.287,Buffalo Creek County Park,Coggon
-90.745,41.454,Buffalo Shores County Park,Buffalo
-90.182,41.935,Bulgers Hollow - Mississippi River,Clinton
-96.319,42.637,Bur Oak - Hillview County Rec Area,Hinton
-94.401,43.488,Burt Lake County Park,Swea City
-92.761,42.844,Camp Comfort ,Greene
-95.043,42.308,Camp Crescent Park,Lake View
-91.014,41.162,Cappy Russell Access,Oakville
-95.424,41.237,Carson City Park,Carson
-94.517,41.509,Casey City Park - Abram Rutt,Casey
-92.494,42.76,Cedar Bend Park,Waverly
-92.855,43.283,Cedar Bridge County Park,Osage
-92.859,41.258,Cedar Creek Access,Oskaloosa
-91.235,41.721,Cedar Valley Co Park,Cedar Bluffs
-92.548,42.959,Cedar View Park,Nashua
-91.138,42.11,Central Park,Center Junctio
-92.206,41.303,Chacauqua River Access,Sigourney
-95.557,42.738,Cherokee City Park,Cherokee
-93.68,41.732,Cherry Glen - Saylorville Lake,Des Moines
-93.429,41.791,Chichaqua Bottoms Greenbelt,Maxwell
-92.503,43.033,Chickasaw Park,Ionia
-96.17,43.07,Childrens Park,Sioux Center
-91.939,43.423,Chimney Rock County Park,Cresco
-93.499,40.863,Cinder Path RV Park,Humeston
-90.809,41.458,Clarks Ferry - Mississippi River,Muscatine
-93.389,43.111,Clear Lake State Park,Clear Lake
-95.476,42.351,Cobb City Park,Ida Grove
-95.136,41.255,Cocklin Fish Farm,Griswold
-91.534,42.494,Coffins Grove,Manchester.
-95.084,41.291,Cold Spring Park,Lewis
-92.642,43.156,Colwell County Park,Colwell
-94.465,42.624,Coopers Cove Co Park,Clare
-93.335,40.751,Corydon Lake Co Park,Corydon
-91.53,41.723,Cottonwood - Coralville Lake,Iowa City
-95.601,42.275,Crawford Creek County Rec Area,Battle Creek
-94.044,41.213,Criss Cove County Park,Winterset.
-93.19,42.478,Cross Ford River Access,Iowa Falls
-93.783,43.23,Crystal Lake Park,Crystal Lake
-92.063,42.544,Cutshall Area,Jesup
-93.573,43.465,Dahle Park,Lake Mills
-93.043,42.249,Daisy Long County Park,Union
-93.292,42.171,Dakins Lake County Park,Zearing
-94.019,41.629,Dallas County Fairgrounds,Adel
-93.068,42.28,David Bates Memorial Park,Union
-96.189,42.009,Decatur Bend Access,Onawa
-90.47,41.96,Deep Creek,Charlotte
-96.325,42.643,Deer Ridge - Hillview County Rec Area,Hinton
-92.303,42.462,Deerwood City Park,Waterloo
-95.338,41.826,Defiance RV Park,Defiance
-94.233,42.95,Devine Wildlife Area,Algona
-92.542,41.593,Diamond Lake County Park,Montezuma
-94.687,42.118,Dickson Timber County Park,Glidden
-95.474,42.935,Dog Creek Co Park,Sutherland
-94.083,42.387,Dolliver Memorial State Park,Otho
-94.027,42.12,Don Williams Park,Ogden
-95.705,43.163,Douma Co Park,Sanborn
-92.046,42.741,Downing County Park,Westgate
-93.508,42.654,Dows Pool Park,Dows
-92.479,40.802,Drakesville City Park,Bloomfield
-90.641,42.523,Dubuque Yacht Basin and RV Park,Dubuque
-91.771,42.996,Duttons Cave Co Park,West Union
-93.146,42.472,Eagle City County Park,Iowa Falls
-93.744,41.033,East Lake Co Park,Osceola
-95.138,43.134,East Leach City Park,Spencer
-90.855,42.047,Eden Valley Park,Baldwin
-91.551,41.68,Edgewater City Park,Iowa City
-91.399,42.645,Edgewood Campground,Edgewood
-94.669,42.739,Elbert Park,Pocahontas
-93.56,42.941,Eldred Sherwood Park,Goodell
-93.086,41.399,Elk Rock State Park,Sweetwater
-91.398,42.852,Elkader City Park,Elkader
-95.09,41.57,Elkhorn Creek Rec Area,Elk Horn
-95.175,43.355,Emerson Bay State Rec Area,Milford
-92.734,41.235,Eveland Access,Beacon
-91.725,41.733,F. W. Kent County Park,Tiffin
-90.924,41.433,Fairport State Rec Area,Muscatine
-94.628,42.495,Featherstone County Park,Rockwell City
-91.008,41.162,Ferry Landing,Muscatine
-94.24,40.737,Fifes Grove Co Park,Mount Ayr
-90.908,42.324,Fillmore County Rec Area,Fillmore
-90.806,42.654,Finleys Landing City Park,Dubuque
-91.118,41.27,Flaming Prairie Park,Grandview
-91.908,42.604,Fontana County Park,Independence
-93.046,42.158,Forest Reserve - Marshalltown,Liscomb
-91.311,42.614,Fountain Springs County Park,Greeley
-90.968,41.063,Fourth Pumping Plant Rec Area,Kingston
-94.207,42.677,Frank A Gotch Park,Humboldt
-91.106,42.852,Frenchtown County Park,Guttenberg
-91.471,42.908,Friedens County Park,Elkader
-95.917,41.268,Friendship City Park,Council Bluffs
-94.865,43.393,Ft. Defiance State Park,Estherville
-95.414,42.506,Galva City Park,Galva
-93.222,42.886,Galvin Memorial Park,Sheffield
-92.85,42.938,Gates Bridge County Park,Marble Rock
-91.383,40.824,Geode State Park,Danville
-92.946,43.054,George Wyatt City Park,Rockford
-92.396,42.536,George Wyth State Park,Cedar Falls
-91.632,42.959,Gilbertson Conservation Education Area,Elgin
-92.592,41.343,Glendale Access,Oskaloosa
-95.734,41.048,Glenwood Lake Park,Glenwood
-91.837,43.041,Goeken Co Park,West Union
-94.689,42.551,Gordon Prange City Park,Pomeroy
-91.957,43.009,Gouldsburg County Park,Hawkeye
-93.033,42.168,Grammer Grove Wildlife Area,Liscomb
-94.893,42.264,Grant County Park,Auburn
-91.362,40.79,Grays Landing,Denmark
-95.081,41.9,Great Western Co Park,Manning
-94.383,41.115,Green Valley State Park,Creston
-92.802,42.893,Greene Rec Area - Camp Comfort,Greene
-95.165,43.371,Gull Point State Park,Milford
-94.967,40.984,Hacklebarney Woods County Park,Villisca
-94.998,42.385,Hagge County Park,Sac City
-92.923,43.354,Halvorson Park,St. Ansgar
-92.112,41.863,Hannen County Park,Blairstown
-92.411,43.119,Haus Park,North Washingt
-96.488,43.003,Hawarden City Park,Hawarden
-94.37,41.988,Henderson Co Park,Jefferson
-93.353,41.99,Hickory Grove County Park,Nevada
-92.311,42.27,Hickory Hills Park -  La Porte City,La Porte City
-93.609,41.18,Hickory Hills Park - New Virginia,New Virgiinia
-91.521,41.555,Hills Access,Hills
-95.853,43.191,Hills Park - Sheldon,Sheldon
-96.319,42.637,Hillview County Rec Area,Hinton
-95.857,41.413,Hitchcock County Nature Center,Honey Creek
-91.976,42.164,Hoefle - Dulin Area County Park,Vinton
-91.311,42.614,Holbert Park,Greeley
-92.928,40.861,Honey Creek State Park,Moravia
-93.997,40.943,Hopeville Square Co Park,Hopeville
-90.664,42.055,Horseshoe Pond,Maquoketa
-92.559,42.985,Howards Woods,Nashua
-92.973,41.365,Howell Station - Red Rock Lake,Pella
-91.38,40.391,Hubinger Landing Park,Keokuk
-96.134,41.925,Huff - Warner Access Area,Blencoe
-94.575,42.113,Hyde Park,Scranton
-95.467,42.348,Ida Grove City Park,Ida Grove
-91.891,42.461,Independence City RV Park,Independence
-91.752,40.633,Indian Lake Park,Farmington
-91.236,40.724,Indian Path Park,Wever
-93.377,42.943,Ingebretson County Park,Thornton
-92.881,43.319,Interstate Co Park,Mitchell
-94.459,43.491,Iowa Lake Co Campground,Armstrong
-95.455,43.5,Iowa Lake Co Park,Harris
-93.617,42.846,Iowa River RV Park,Belmond
-93.551,41.599,Iowa State Fairgrounds,Des Moines
-96.171,43.436,Island Park - Rock Rapids,Rock Rapids
-94.014,41.621,Island Park Co Park,Adel
-92.906,40.827,Island View - Rathbun Lake,Centerville
-92.981,41.368,Ivans - Red Rock Lake,Pella
-91.741,42.599,Jakway County Park,Aurora
-91.988,40.993,Jefferson County Park,Fairfield
-93.775,41.78,Jester County Park,Granger
-94.261,42.731,Joe Sheldon County Park,Humboldt
-90.751,42.079,Joinerville County Park,Maquoketa
-91.597,42.677,Joy Springs County Park,Strawberry Poi
-94.68,43.122,Kearny Park,Emmetsburg
-94.192,42.583,Kennedy County Park,Fort Dodge
-91.816,42.844,Klocks Island Park,Fayette
-94.339,40.792,Kokesh Co Park,Diagonal
-95.554,42.704,Koser Spring Lake Park,Cherokee
-91.981,40.709,Lacey - Keosauqua State Park,Keosauqua
-93.583,41.296,Lake Ahquabi State Park,Indianola
-94.762,41.433,Lake Anita State Park,Anita
-94.711,41.003,Lake Binder Co Park,Corning
-92.917,42.716,Lake Considine,Bristow
-93.692,42.793,Lake Cornelia Park,Clarion
-91.896,41.192,Lake Darling State Park,Brighton
-92.446,40.759,Lake Fisher,Bloomfield
-92.55,43.373,Lake Hendricks Co Park,Riceville
-94.735,41.056,Lake Icaria Co Park,Corning
-92.182,41.636,Lake Iowa County Park,Ladora
-92.541,41.29,Lake Keomah State Park,Oskaloosa
-91.577,41.798,Lake Macbride State Park,Solon
-95.854,41.197,Lake Manawa State Park,Council Bluffs
-91.911,43.173,Lake Meyer County Park,Calmar
-94.684,40.713,Lake of Three Fires State Park,Bedford
-94.437,41.2,Lake Orient Rec Area,Orient
-96.465,43.386,Lake Pahoja Rec Area,Inwood
-91.994,40.683,Lake Sugema County Park,
-92.589,40.816,Lake Wapello State Park,Drakesville
-93.504,40.877,Lakeside Co Park,Humeston
-95.388,42.73,Larson Lake Co Park,Aurelia
-93.887,41.983,Ledges State Park,Boone
-95.23,41.023,Legion City Park,Red Oak
-92.886,40.715,Lelah Bradley Park,Centerville
-94.57,41.687,Lenon Mill Co Park,Panora
-96.162,42.027,Lewis and Clark State Park,Onawa
-92.279,43.466,Lidtke Park,Lime Springs
-93.194,43.184,Lime Creek Conservation Area - Mason City,Mason City
-91.981,42.327,Lime Creek Park - Brandon,Brandon
-91.543,41.725,Linder Point - Coralville Lake,Iowa City
-93.196,42.979,Linn Grove County Park,Rockwell
-95.246,42.895,Linn Grove Dam Co Park,Linn Grove
-93.778,40.768,Little River Rec Area,Leon
-95.801,42.45,Little Sioux Park,Correctionvill
-93.639,42.277,Little Wall Lake County Park,Jewell
-94.785,41.556,Littlefield Rec Area,Exira
-94.891,43.176,Lost Island Huston Park,Ruthven
-94.202,42.867,Lotts Creek Co Park,Dakota City
-91.356,41.278,Louisa County Fairgrounds,Columbus Junct
-91.258,40.755,Lower Augusta Skunk River Access,Augusta
-95.386,41.318,Lyons Park,Oakland
-91.736,41.051,Mac Coon Access,Lockridge
-93.232,42.663,Mallory Co Park,Hampton
-92.108,41.239,Manhattan Bridge Access,Ollie
-95.462,41.855,Manteno Co Park,Defiance
-95.787,42.168,Mapleton City,Mapleton
-90.775,42.119,Maquoketa Caves State Park,Maquoketa
-95.125,43.469,Marble Beach State Rec Area,Spirit Lake
-93.183,43.158,Margaret Macnider City Park,Mason City
-93.119,41.316,Marion County Park,Knoxville
-92.963,41.782,Mariposa Co Park,Newton
-94.349,40.818,Marlin Fogle Rec Area,Diagonal
-91.579,41.287,Marr Park,Ainsworth
-95.472,42.851,Martin Area County Park,Larrabee
-90.587,42.43,Massey Marina,Dubuque
-91.382,42.132,Matsell Bridge Natural Area,Central City
-91.878,42.778,Maynard City Park,Maynard
-92.142,42.318,McFarlane Park,La Porte City
-92.393,40.75,McGowen Rec Area,Bloomfield
-93.452,43.127,McIntosh Woods State Park,Ventura
-94.382,41.052,McKinley Park,Creston
-94.414,41.525,Menlo City Park,Menlo
-94.621,42.907,Meredith Co Park,Plover
-92.837,41.12,Miami Lake Park,Lovilia
-91.9,41.798,Middle Amana Park,Middle Amana
-94.281,41.352,Middle River Forest Area,Dexter
-91.547,40.952,Midwest Old Threshers,Mount Pleasant
-94.762,42.272,Mike Macke Memorial Park,Lake City
-95.668,42.984,Mill Creek Co Park,Paulina
-90.642,42.516,Miller Riverview City Park,Dubuque
-92.018,42.195,Milroy Access,Vinton
-92.019,42.259,Minne Estema Park,Vinton
-95.129,43.365,Minnewashta Lake,
-95.906,41.557,Missouri Valley City Park,Missouri Valle
-93.513,40.602,Moore - Gosch Memorial Park,Lineville
-95.479,42.357,Moorehead Pioneer County Park,Ida Grove
-91.76,41.989,Morgan Creek County Park,Palo
-94.637,41.24,Mormon Trail County Park,Bridgewater
-91.8,40.888,Morris County Park,Stockport
-91.351,42.807,Motor Mill Historic Site,Motor
-90.706,42.616,Mud Lake County Park,Dubuque
-94.331,41.577,Nations Bridge Co Park,Stuart
-95.587,41.936,Nelson Park,Dow City
-92.303,43.058,New Hampton City,New Hampton
-91.124,42.536,New Wine County Park,Dyersville
-93.754,40.588,Nine Eagles State Park,Davis City
-95.323,41.568,Nishna Bend Rec Area,Harlan
-94.985,40.761,Nodaway Valley County Park,Clarinda
-92.524,42.848,North Cedar Park,Plainfield
-92.971,41.378,North Overlook - Red Rock Lake,Pella
-92.088,42.866,North Woods Park,Sumner
-96.472,43.059,Oak Grove Co Park,Hawarden
-96.459,43.062,Oak Grove County Park,Hawarden
-94.069,42.256,Oak Park - Dayton,Dayton
-91.619,40.935,Oakland Mills Park,Oakland Mills
-93.264,43.481,Ochee Yahola,Northwood
-95.535,43.386,Ocheyedan Pits Rec Area,Ocheyedan
-95.249,42.308,Odebolt Memorial Walk RV Park,Odebolt
-91.92,42.648,Oelwein City Park,Oelwein
-95.448,41.197,Olde Towne Co Park,Macedonia
-95.789,42.008,Oldham Rec Area,Soldier
-95.122,43.125,Oneota Little Sioux Access,Spencer
-92.854,43.276,Osage Spring City Park,Osage
-91.444,42.793,Osborne Conservation Center,Dyersville
-92.98,43.459,Otranto Co Park,Otranto
-93.532,41.246,Otter Creek Co Park,Indianola
-92.52,42.052,Otter Creek Lake and Park,Toldedo
-92.43,41.01,Ottumwa City Park,Ottumwa
-91.508,41.909,Palisades Kepler State Park,Mt.Vernon
-94.076,41.292,Pammel County Park,Winterset
-90.687,41.52,Park Terrace - West Lake County Park,Davenport
-94.11,41.835,Pattee Park,Perry
-95.943,42.2,Peters Park - Rodney Pits Rec Area,Rodney
-91.106,42.209,Pictured Rocks Co Park,Monticello
-95.355,40.843,Pierce Creek Rec Area,Essex
-91.165,42.993,Pikes Peak State Park,McGregor
-93.647,42.783,Pikes Timber,Clarion
-95.043,41.146,Pilot Grove Co Park,Grant
-93.561,43.254,Pilot Knob State Park,Forest City
-91.435,42.454,Pin Oak Co Park,Manchester
-90.529,41.715,Pine Grove - Scott County Park,Long Grove
-93.078,42.371,Pine Lake State Park,Eldora
-93.07,42.413,Pine Ridge - Steamboat Rock,Steamboat Rock
-95.222,40.744,Pioneer City Park,Shenandoah
-92.68,43.341,Pioneer Co Park,Osage
-95.93,41.833,Pisgah City Park,Pisgah
-90.38,42.21,Pleasant Creek,Dubuque
-91.814,42.119,Pleasant Creek State Rec Area,Palo
-94.198,40.711,Poe Hollow County Park,Mount Ayr
-91.436,40.714,Pollmiller Park,West Point
-95.788,41.071,Pony Creek Co Park,Pacific Juncti
-93.434,42.585,Popejoy Conservation Park,Popejoy
-95.338,41.471,Pottawattamie County Fairgrounds,Avoca
-93.057,42.56,Prairie Bridges Park,Ackley
-93.688,41.749,Prairie Flower - Saylorville Lake,Des Moines
-92.888,40.858,Prairie Ridge - Rathbun Lake,Moravia
-95.212,41.6,Prairie Rose State Park,Harlan
-95.623,43.084,Primghar City Park,Primghar
-91.809,43.299,Pulpit Rock City Campground,Decorah
-92.668,41.198,Quercus Wilderness Area,Oskaloosa
-94.756,42.228,Rainbow Bend Co Park,Lake City
-95.731,42.575,Ranney Knob Area,Washta
-93.28,40.998,Red Haw State Park,Chariton
-93.19,42.254,Reece Park,Union
-95.149,42.438,Reiff Park,Early
-94.628,42.087,Richey Campground,Glidden
-91.502,41.491,River Junction Access,Lone Tree
-96.311,43.213,Rivers Bend,Rock Valley
-92.777,43.436,Riverside Co Park,Stacyville
-94.669,41.877,Riverside Park - Coon Rapids,Coon Rapids
-93.813,42.468,Riverside Park - Webster City,Webster City
-90.185,41.852,Riverview City Park - Clinton,Clinton
-92.902,42.064,Riverview Park - Marshalltown,Marshalltown
-92.664,42.47,Roadman Roadside Park,Dike
-93.042,41.426,Roberts Creek Park,Pella
-92.645,41.507,Robertson Access,New Sharon
-95.736,43.399,Robinson Park,Sibley
-90.328,41.75,Rock Creek County Marina and Campground,Camanche
-92.837,41.761,Rock Creek State Park,Kellogg
-94.634,42.4,Rockwell City RV Park,Rockwell City
-92.083,42.196,Rodgers County Park,Vinton
-92.981,40.849,Rolling Cove - Rathbun Lake,Centerville
-95.327,41.732,Rosman Glendale Farm Rec Area,Harlan
-94.964,40.609,Ross County Park,Braddyville
-91.81,40.914,Round Prairie Park,Fairfield
-92.894,43.127,Rudd Eastside Park,Rudd
-94.985,42.419,Sac City Park,Sac Cityt
-94.497,40.629,Sands Timber Rec Area,Blockton
-91.597,41.814,Sandy Beach - Coralville Lake,Iowa City
-96.118,43.064,Sandy Hollow Park,Sioux Center
-92.161,43.195,Saude Rec Area,Fredericksburg
-91.17,41.499,Saulsbury Bridge,Muscatine
-95.672,41.805,Schaben County Park,Dunlap
-95.289,43.151,Scharnberg Co Park,Everly
-95.411,41.775,Schimerowski Rec Area,Earling
-90.527,41.714,Scott County Park,Eldridge
-91.633,42.599,Scout Park - Lamont,Lamont
-93.12,40.67,Seymour Lake Co Park,Seymour
-90.878,41.446,Shady Creek  - Mississippi River,Muscatine
-92.591,42.723,Shell Rock Rec Area,Shell Rock
-93.044,43.174,Shellrock River Co Preserve,Nora Springs
-90.784,41.78,Sherman Co Park,Calamus
-91.677,40.615,Shimek State Forest,Farmington
-94.397,43.053,Siems County Park,Whittemore
-92.143,42.638,Siggelkov County Park,Dunkerton
-95.326,43.448,Silver Lake City Park - East,Lake Park
-95.35,43.441,Silver Lake City Park - South,Lake Park
-93.42,43.485,Silver Lake Co Park,Northwood
-91.322,42.426,Silver Lake County Park,Delhi
-95.591,42.649,Silver Sioux Recreation Area,Quimby
-91.97,41.25,Skunk River Access,Richland
-93.845,40.653,Slip Bluff County Park,Lamoni
-94.243,43.122,Smith Lake County Park,Algona
-91.111,41.193,Snively Access,Wapello
-96.337,42.284,Snyder Bend County Park,Salix
-94.215,41.079,South - Three Mile Co Rec Area,Afton
-91.672,43.442,South Bear Co Park,Highlandville
-92.987,42.744,South Fork Access  - Dumont Park,Clarksville
-93.994,43.083,South Park - Wesley,Wesley
-90.17,42.063,South Sabula Lakes County Park,Maquoketa
-95.954,42.22,Southwood Conservation Area,Smithland
-92.239,42.909,Split Rock County Park,Fredericksburg
-92.68,42.786,Sportsman Park - Clarksville,Clarksville
-94.21,41.847,Sportsman Park - Dawson,Dawson
-94.291,42.068,Spring Lake County Park,Jefferson
-94.467,41.774,Springbrook State Park,Guthrie Center
-90.436,42.304,Spruce Creek County Park,Bellevue
-91.556,42.02,Squaw Creek County Park,Marion
-94.29,41.95,Squirrel Hollow Co Park,Jefferson
-93.482,41.022,Stephens State Forest,Lucas
-91.437,40.828,Stephenson Park,Lowell
-95.681,42.609,Stieneke Area Park,Quimby
-92.885,42.394,Stoehr Fishing Area,Grundy
-96.47,42.557,Stone State Park,Sioux City
-94.848,42.579,Straight Park,Fonda
-93.931,42.271,Stratford City Park,Stratford
-91.559,41.776,Sugar Bottom - Coralville Lake,Solon
-90.683,41.529,Summit - West Lake County Park,Davenport
-95.026,41.399,Sunnyside Park,Atlantic
-95.025,41.398,Sunnyside Park Campground,Atlantic
-95.175,42.628,Sunrise,Storm Lake
-94.953,42.786,Sunset City Park - Albert,Albert City
-94.846,42.035,Swan Lake State Park,Carroll
-93.855,41.885,Swede Point Park,Madrid
-90.739,42.431,Swiss Valley County Park,Dubuque
-92.422,42.225,T. F. Clark Co Park,Traer
-91.528,41.72,Tailwater  - Coralville Lake,Iowa City
-94.072,41.021,Thayer Lake Rec Area,Thayer
-93.378,41.643,Thomas Mitchell County Park,Mitchellville
-93.756,43.262,Thorpe Park,Forest City
-91.874,42.456,Three Elms County Park,Independence
-94.213,41.085,Three Mile Rec Area,Afton
-92.536,42.631,Thunder Woman Park,Janesville
-93.001,42.088,Timmons Grove County Park,Marshalltown
-95.616,43.07,Tjossem County Park,Primghar
-93.07,42.401,Tower Rock - Steamboat Rock,Steamboat Rock
-91.716,42.318,Troy Mills Wapsi Access,Quasqueton
-91.385,42.403,Turtle Creek County Park,Manchester
-94.614,43.489,Tuttle Lake Park,Dolliver
-91.881,42.818,Twin Bridges County Park,Maynard
-92.389,43.014,Twin Ponds Co Park  - East,Ionia
-92.395,43.009,Twin Ponds Co Park  - West,Ionia
-92.725,42.125,Union Grove State Park,Gladbrook
-92.569,41.457,Union Mills Access,New Sharon
-94.543,42.252,University 40,Lohrville
-91.29,40.772,Upper Augusta Skunk River Access,Augusta
-92.137,43.348,Vernon Springs Turkey River County Park,Vernon Springs
-91.765,42.393,Veterans Memorial County Park,Quasqueton
-91.378,40.392,Victory Park,Keokuk
-95.043,40.964,Viking Lake State Park,Stanton
-91.32,41.142,Virginia Grove Rec Area,Morning Sun
-91.758,42.866,Volga River  State Rec Area,Fayette
-95.23,40.658,Wabash Trace Park,Coin
-91.523,42.192,Wakpicada Natural Area,Central City
-92.991,41.4,Wallashuck - Red Rock Lake,Pella
-90.863,41.91,Walnut Grove Co Park,Toronto
-93.747,41.538,Walnut Woods State Park,West Des Moines
-91.193,41.187,Wapello Fairgrounds Park,Wapello
-91.292,42.1,Wapsipinicon State Park,Anamosa
-91.622,40.939,Water Works Park,Mount Pleasant
-91.619,40.938,Waterworks Park - Oakland Mills Park,Mt.Pleasant
-95.682,40.681,Waubonsie State Park,Hamburg
-92.076,40.646,Waubonsie Trail Park,Cantril
-91.474,43.258,Waukon City Park,Waukon
-91.27,40.757,Welter Recreation Park,Augusta
-92.643,42.636,West Fork Forest Access,Shell Rock
-92.757,43.165,West Idlewild County Campground,Floyd
-90.688,41.52,West Lake County Park,Davenport
-91.536,41.725,West Overlook - Coralville Lake,Iowa City
-96.185,43.431,Westside County Park - Rock Rapids,Rock Rapids
-93.024,41.383,Whitebreast - Red Rock Lake,Knoxville
-91.887,42.194,Wildcat Bluff County Park,Urbana
-92.784,42.75,Wilder City Park,Allison
-93.082,43.204,Wilkinson - Pioneer County Park,Rock Falls
-95.053,41.906,Willow Creek City Park - Manning,Manning
-96.155,42.803,Willow Creek Park - Le Mars,Le Mars
-95.786,41.772,Willow Lake County Rec Area - Woodbine,Woodbine
-96.01,41.492,Wilson Island State Rec Area,Missouri Valle
-94.545,40.84,Wilson Lake County Park,Lenox
-91.489,40.642,Wilson Lake Park - Fort Madison,Fort Madison
-94.829,40.73,Windmill Lake Co Park,New Market
-94.005,41.328,Winterset City Park,Winterset
-93.18,42.773,WKW Conservation Park,Hampton
-94.705,43.312,Wolden Rec Area,Wallingford
-92.793,42.211,Wolf Creek Rec Area,Grundy Center
-92.802,42.893,Wunsch Memorial Park,Greene
-93.472,41.551,Yellow Banks County Park,Pleasant Hill
-91.228,43.176,Yellow River State Forest,Harpers Ferry
-95.315,42.03,Yellow Smoke Park,Denison
-92.201,41.378,Yenruogis County Park,Sigourney
-90.39,40.986,Allison Lake Storey,Galesburg
-90.768,41.438,Andalusia Slough - Missssippi River,Davenport
-90.204,40.195,Anderson Lake State Conservation Area,Browning
-90.052,42.449,Apple River Canyon State Park,Apple River
-90.801,40.453,Argyle Lake State Park,Colchester
-88.91,37.826,Arrowhead Lake,Johnston City
-91.479,40.112,Bear Creek - Mississippi River,Marcelline
-89.976,39.211,Beaver Dam State Park,Plainview
-90.939,41.054,Big River State Forest,Keithsburg
-88.175,41.838,Blackwell Forest Preserve,
-91.056,41.348,Blanchard Island - Mississippi River,Muscatine
-90.403,42.287,Blanding Landing - Mississippi River,Hanover
-88.614,39.554,Bo Wood  - Lake Shelbyville,Sullivan
-89.236,38.695,Boulder  - Lake Carlyle,Carlyle
-88.884,37.581,Buck Ridge  -  Lake Of Egypt,Ozark
-88.194,38.1,Burrell City Park,Carmi.
-88.244,37.578,Camp Cadiz,Karber's Ridge
-89.975,40.561,Canton Lake,Canton
-89.537,40.711,Carl Spindler,East Peoria
-91.152,40.425,Carthage City Park,Carthage
-88.156,37.469,Cave - In - Rock State Park,Cave-In-Rock
-88.188,42.446,Chain OLakes State Park,Spring Grove
-88.538,38.665,Charley Brown City Park,Flora
-88.788,40.163,Clinton Lake  State Rec Area,DeWitt
-89.261,38.657,Coles Creek  - Lake Carlyle,Carlyle
-89.03,40.642,Comlara County Park,Hudson
-88.759,39.452,Coon Creek - Shelbyville Lake,Shelbyville
-89.12,37.74,Crab Orchard  National Wildlife Refuge,Carbondale
-87.899,39.003,Crawford County Fairgrounds,Oblong
-89.361,38.632,Dam West  - Lake Carlyle,Carlyle
-89.839,39.915,Deer Park,Petersburg
-90.942,40.959,Delabar State Park,Oquawka
-88.207,41.377,Des Plaines State Conservation Area,Wilmington
-88.21,41.311,Desplaines Conservational Park,Wilmington
-89.512,37.639,Devils Backbone Park,Grand Tower
-89.111,37.644,Devils Kitchen,Makanda
-88.666,37.383,Dixon Springs State Park,Golconda
-89.226,37.984,Du Quoin State Fair Campground,Du Quoin
-88.71,39.501,Eagle Creek State Park,Findlay
-89.327,38.663,Eldon Hazlet State Park,Carlyle
-88.881,39.866,Faries Park,Decatur
-88.966,37.533,Ferne Clyffe State Park,Goreville
-90.396,41.567,Fishermans Corner - Mississippi River,Hampton
-87.564,40.01,Forest Glen County Preserve,Danville
-89.147,36.987,Fort Defiance State Park,Cairo
-89.909,37.969,Fort Kaskaskia State Park,Ellis Grove
-88.707,37.147,Fort Massac State Park,Metropolis
-88.135,39.403,Fox Ridge State Park,Charleston
-89.86,41.28,Francis City Park,Kewanee
-88.781,40.031,Friends Creek Regional Park,Cisco
-90.077,40.463,Fulton County Rec Area,St David
-89.194,37.604,Giant City State Park,
-88.373,39.457,Gibson City Park,
-88.485,37.375,Golconda Marina ,Golconda
-87.831,42.321,Great Lakes Naval Military,North Chicago
-90.867,39.426,Great River Road Campground,Pleasant Hill
-89.516,41.631,Green River State Wildlife Area,Harmon
-88.931,38.078,Gun Creek -   Rend Lake,Benton
-88.401,38.056,Hamilton County State Conservation Area,McLeansboro
-90.982,40.85,Henderson County State Conservation,Keithsburg
-89.714,41.399,Hennepin Canal Parkway State Park,Sheffield
-88.689,39.317,Hidden Springs State Forest,Strasburg
-87.986,38.25,Hilltop Campground - Grayville,Grayville
-89.045,42.439,Hononegah Forest Preserve,Rockton
-90.066,38.699,Horseshoe Lake Recreation Area,East St. Louis
-89.331,37.118,Horseshoe Lake State Conservation Area - Cairo,Miller City
-88.716,41.322,Illini State Park,Marseilles
-90.403,41.565,Illiniwek Campground,Hampton
-87.807,42.434,Illinois Beach State Park,Zion
-90.074,39.996,Jim Edgar Panther Creek WA,Chandlerville
-89.521,37.834,Johnson Creek,Murphysboro
-89.891,41.33,Johnson Sauk Trail State Park,Kewanee
-89.797,40.824,Jubilee College State Park,Brimfield
-88.477,39.711,Jurgens City Park,Arthur
-90.609,39.299,Kampsville River Park,Kampsville
-87.979,41.204,Kankakee River State Park,Bourbonnais
-90.943,41.098,Keithsburg Riverside Campground,Keithsburg
-87.753,40.139,Kickapoo State Park,Oakwood
-89.831,42.422,Lake - Le - Aqua - Na State Park,Lena
-89.316,41.324,Lake De Pue City Park,De Pue
-89.612,39.195,Lake Lou Yaeger,Litchfield
-88.471,39.346,Lake Mattoon Campground East,Mattoon
-88.47,39.359,Lake Mattoon Campground West,Mattoon
-89.383,37.779,Lake Murphysboro State Park,Murphysboro
-89.262,39.525,Lake Taylorville City Campground,Taylorville
-87.719,39.339,Lincoln Trail State Park,Marshall
-89.845,39.981,Lincolns New Salem Historic Site,Petersburg
-88.76,39.434,Lithia Springs - Shelbyville Lake,Shelbyville
-89.162,37.644,Little Grassy Lake - Crab Orchard NWR,Makanda
-88.665,40.892,Livingston County 4-H Park,Pontiac
-90.154,41.898,Lock and Dam 13 - Mississippi River,Fulton
-88.739,39.455,Lone Point - Lake Shelbyville,Shelbyville
-89.323,42.033,Lowden Memorial State Park,Oregon
-88.6,42.285,Marengo Ridge County Park,Marengo
-87.813,39.448,Mill Creek Park,Marshall
-90.164,42.144,Mississippi Palisades State Park,Savanna
-88.728,40.413,Moraine View State Park,LeRoy
-89.967,41.841,Morrison Rockwood State Park,Morrison
-91.384,40.544,Nauvoo State Park,Nauvoo
-89.001,38.069,North Sandusky - Rend Lake,Benton
-88.661,37.409,Oak Point   -   Lake Glendale,Vienna
-88.023,39.659,Oakland City Park,Oakland
-87.902,39.004,Oblong Park,Oblong
-88.773,39.445,Opossum Creek - Shelbyville Lake,Shelbyville
-87.695,39.634,Paris City Park,Paris
-88.36,42.071,Paul Wolff Campground - Burnidge Wolff Preserve,Close to RR
-89.321,42.362,Pecatonica River Forest Preserve,Pecatonica
-90.542,38.977,Pere Marquette State Park,Grafton
-88.379,37.603,Pharoah  -  Garden Of The Gods,Harrisburg
-89.422,37.516,Pine Hills,Jonesboro
-88.267,37.615,Pine Ridge  -  Pounds Hollow,Karber's Ridge
-90.761,39.644,Pittsfield City Lake,Pittsfield
-88.15,40.284,Prairie Pines Campground,Rantoul
-89.926,41.672,Prophetstown State Park,Prophetstown
-89.425,38.005,Pyramid State Park,Pinckneyville
-90.408,39.306,Rainey City Park,Carrollton
-89.125,39.159,Ramsey Lake State Park,Ramsey
-89.805,37.972,Randolph County State Conservation Area,Chester
-87.836,38.73,Red Hills Lake State Park,Sumner
-88.656,37.523,Redbud - Bell Smith Springs,Ozark
-89.948,40.478,Rice Lake State Conservation Area,Canton
-90.066,40.301,Riverfront City Park - Havana,Havana
-89.617,39.857,Riverside Park,Springfield
-87.742,38.997,Robinson City Park,Robinson
-88.978,42.37,Rock Cut State Park,Loves Park
-88.39,37.693,Saline County State Conservation Area,Equality
-88.591,38.543,Sam Dale Lake Conservation Area,Johnsonville
-88.122,39.016,Sam Parr State Park,Newton
-89.866,40.411,Sand Ridge State Forest - Forest City,Topeka
-89.488,39.655,Sangchris Lake State Park,Rochester
-90.553,40.083,Schuy - Rush Park,Rushville
-89.841,38.551,Scott AFB Military,Belleville
-89.368,42.276,Seward Bluffs Forest Preserve,Seward
-88.87,41.761,Shabbona Lake State Park,Shabbona
-90.878,41.448,Shady Creek - Mississippi River,Muscatine
-89.471,39.179,Sherwood Forest,Hillsboro
-90.955,39.896,Siloam Springs State Park,Clayton
-88.373,40.457,South City (Gibson) Park,Gibson City
-88.936,38.035,South Marcum  - Rend Lake,Benton
-89.006,38.059,South Sandusky -  Rend Lake,Benton
-90.67,40.476,Spring Lake Park - Macomb,Macomb
-89.847,40.474,Spring Lake State Conservation Area,Manito
-89.011,41.321,Starved Rock State Park,Utica
-88.763,38.72,Stephen A. Forbes State Park,Kinmundy
-89.235,42.464,Sugar River Forest Preserve,Durand
-88.641,37.542,Teal Pond,
-90.117,41.949,Thomson Causeway -  Mississippi River,Thomson
-88.233,37.459,Tower Rock,Harrisburg
-89.359,37.482,Trail of Tears State Forest,Jonesboro
-89.413,37.686,Turkey Bayou,Murphysboro
-88.038,39.697,Walnut Point State Park,Oakland
-91.446,40.355,Warsaw City Campground,Warsaw
-89.363,38.28,Washington County Lake State Conservation Area,Nashville
-90.012,39.6,Waverly Lake City Park,Waverly
-88.934,38.111,Wayne Fitzgerrell State Park,Whittington
-90.898,40.233,Weinberg - King State Park,Augusta
-88.924,40.117,Weldon Springs State Park,Clinton
-89.007,38.068,West Sandusky - Rend Lake,Sesser
-89.475,41.993,White Pines Forest State Park,Polo
-88.626,39.535,Whitley Creek - Lake Shelbyville,Sullivan
-89.796,42.497,Winslow Community Park,Winslow
-88.687,39.477,Wolf Creek State Park,Windsor
-89.437,40.878,Woodford State Conservation Area,Low Point
-86.578,41.221,Bass Lake State Beach,Knox
-85.251,41.444,Bixler Lake City Campground,Kendallville
-84.998,39.436,Brookville Lake,Brookville
-86.271,39.177,Brown County State Park,Nashville
-86.097,38.41,Buffalo Trace Co Park,Palmyra
-87.64,37.944,Burdette Park,Evansville
-86.027,39.355,Camp Atterbury Military,Edinburgh
-87.458,39.944,Cayuga Park Campground,Cayuga
-86.604,38.199,Celina Recreation Area,Bristow
-85.402,41.341,Chain OLakes State Park,Albion
-85.646,38.449,Charlestown State Park,Charlestown
-85.939,38.546,Clark State Forest,Henryville
-85.418,38.76,Clifty Falls State Park,Madison
-86.821,38.877,Crane MWR Military,Crane
-85.865,38.46,Deam Lake  State Rec Area,Borden
-86.404,40.608,Deer Creek Co Park,Camden
-86.041,38.725,Delaney Creek Park,Salem
-86.885,38.317,Dubois County Park,Huntingburg
-86.983,41.671,Dunewood - Indiana Dunes National Lakeshore,Chesterton
-87.417,40.687,Earl Park Rest Area,Fowler
-85.809,41.58,Elkhart County Fairgrounds,Goshen
-86.783,38.257,Ferdinand State Forest,Ferdinand
-87.372,39.334,Fowler County Park,Terre Haute
-85.019,39.405,Franklin County Park,Brookville
-86.573,40.692,French Post Co Park,Logansport
-86.589,37.952,German Ridge,Cannelton
-87.041,38.549,Glendale State Fish and Wildlife Area,Montgomery
-87.244,38.994,Greene - Sullivan State Forest,Dugger
-86.431,39.013,Hardin Ridge,
-85.702,38.777,Hardy Lake  State Rec Area,Unknown
-87.944,38.09,Harmone State Park,New Harmony
-87.323,39.49,Hawthorne County Park,Terre Haute
-85.973,39.3,Heflen Co Park,Edinburgh
-85.42,41.387,Hidden Diamonds City Park,Albion
-87.959,37.814,Hovey Lake State Fish and Wildlife Area,Mt.Vernon
-87.063,41.657,Indiana Dunes State Park,Chesterton
-85.969,39.361,Irwin City Park,Edinburgh
-86.021,38.86,Jackson - Washington State Forest,
-85.119,41.112,Johnny Appleseed Park,Fort Wayne
-86.043,39.38,Johnson County Park,Edinburgh.
-85.436,40.843,Kil-So-Quah - J. Edward Roush Lake,Huntington
-87.517,38.698,Kimmell City Park,Vincennes
-85.837,41.235,Kosciusko County Fairgrounds,Warsaw
-85.471,40.893,Lake Clare Park Camp,Huntington
-87.079,39.891,Lake Waveland Park,Waveland
-86.875,39.487,Lieber  State Rec Area,Cloverdale
-86.996,38.104,Lincoln State Park,Lincoln City
-87.539,38.683,Lincoln Trail,
-85.629,40.768,Lost Bridge State Rec Area - Salamonie Lake,Andrews
-87.329,38.193,Lynnville Park,Lynnville
-85.365,38.732,Madison City Park,Madison
-86.722,38.697,Martin State Forest,Shoals
-86.372,39.375,Mason Ridge - Morgan Monroe State Forest,Martinsville
-86.726,39.283,McCormicks Creek State Park,Spencer
-85.94,40.703,Mississinewa Lake - Miami Recreation Area,Peru
-87.041,38.669,Montgomery Rec Park,Montgomery
-86.422,39.335,Morgan - Monroe State Forest,Martinsville
-84.973,39.488,Mounds  State Rec Area - Brookville Lake,Brookville
-85.616,40.106,Mounds State Park,Anderson
-85.582,40.745,Mt. Etna  State Rec Area,Andrews
-85.616,38.99,Muscatatuck,North Vernon
-86.658,38.4,Newton Stewart  State Rec Area - Patoka Lake,Birdseye
-86.29,38.196,OBannon Woods State Park,Corydon
-85.123,40.725,Ouabache State Park,Bluffton
-87.508,38.724,Ouabache Trails County Park,Vincennes
-86.844,39.316,Owen Putnam State Forest,Spencer
-85.064,38.745,Paul Ogle Riverfront Park,Vevay
-86.439,39.083,Paynetown  State Rec Area - Monroe Lake,
-85.271,41.681,Pigeon River State Fish and Wildlife Area,Mongo
-85.842,41.246,Pike Lake County Campground,Warsaw
-87.157,38.36,Pike State Forest,Winslow
-85.022,41.708,Pokagon State Park,Angola
-86.35,41.537,Potato Creek State Park,North Liberty
-87.469,39.285,Prairie Creek County Park,Terre Haute
-85.28,40.139,Prairie Creek Park,Muncie
-87.255,38.486,Prides Creek Co Park,Petersburg
-86.832,40.503,Prophetstown State Park,Battle Ground
-85.002,39.581,Quakertown  State Rec Area - Brookville Lake,Brookville
-87.075,39.734,Raccoon - Cecil M. Harden Lake,Rockville
-86.85,39.399,Rattlesnake - Owen Putnam State Forest,Vandalia
-87.241,39.017,Res 26 - Greene - Sullivan State Forest,Dugger
-86.412,39.263,Riddle Point Park on Lake Lemon,Unionville
-87.218,39.782,Rockville Lake County Park,Rockville
-87.076,40.405,Ross Camp,West Lafayette
-86.661,38.062,Saddle Lake Rec Area,Tell City
-85.629,40.768,Salamonie State Lake - Lost Bridge West SRA,Lagro
-87.255,38.059,Scales Lake Park,Boonville
-87.076,39.931,Shades State Park,Waveland
-87.232,39.165,Shakamak State Park,Jasonville
-86.019,38.07,South Harrison Co Park,Elizabeth
-86.412,38.733,Spring Mill State Park,Mitchell
-86.564,38.485,Springs Valley Rec Area,Paoli
-86.077,38.817,Starve Hollow  State Rec Area,Vallonia
-85.034,41.668,Steuben County Park,Angola
-87.394,39.104,Sullivan County Park,Sullivan
-85.303,40.026,Summit Lake State Park,New Castle
-87.142,39.054,Sunset City Park,Linton
-86.477,38.316,Sycamore Springs Park,English
-86.578,41.107,Tippecanoe River State Park,Winamac
-86.643,38.134,Tipsaw,Saint Croix
-87.202,39.882,Turkey Run State Park,Marshall
-87.56,38.092,Vanderburgh 4H Campground,Evansville
-85.229,39.078,Versailles State Park,Milan
-86.679,40.593,Wabash and Erie Canal Park,Delphi
-85.824,40.791,Wabash City RV Park,Wabash
-86.928,38.736,West Boggs Park,Loogootee
-85.438,39.904,Westwood Park,New Castle
-85.969,40.124,White River Campground,Cicero
-84.942,39.612,Whitewater Memorial State Park,Liberty
-87.517,40.971,Willow Slough State Fish and Wildlife Area,Morocco
-86.339,39.186,Yellowwood State Forest,Nashville
-95.582,38.673,110 Mile Park - Pomona Reservoir,Overbrook
-97.657,39.546,Airport Park,Concordia
-98.049,37.175,Anthony City Lake,Anthony
-97.764,37.247,Argonia River Park,Argonia
-100.761,37.148,Arkalon Park,Liberal
-95.751,38.493,Arrow Rock - Melvern Reservoir,Melvern
-95.451,39.638,Atchison County Lake,Atchison
-95.174,39.632,Atchison State Fishing Lake,Atchison
-101.042,39.818,Atwood Lions Club Park,Atwood
-101.042,39.815,Atwood Lions Park,Atwood
-95.779,39.457,Banner Creek,Holton
-94.72,37.023,Baxter Springs Riverside Park,Baxter Springs
-97.288,39.567,Berner Memorial Campground,Clifton
-101.257,37.898,Beymer Water Recreation Park,Lakin
-94.939,37.274,Big Brutus Museum,West Mineral
-95.376,38.912,Bloomington East - Clinton Lake,Lawrence
-96.666,39.683,Blue Rapids/Riverside City Park,Blue Rapids
-98.005,38.633,Boldt Bluff - Kanopolis Lake,Salina
-100,38.069,Buckner Valley Park,Jetmore
-95.446,37.806,Camp Hunter Park,Humboldt
-99.168,38.177,Camp Pawnee,Larned
-96.536,38.693,Canning Creek - Council Grove Lake,Council Grove
-95.678,38.675,Carbolyn Park - Pomona Lake,Ottawa
-95.849,37.257,Card Creek - Elk City Lake,Independence
-97.163,37.275,Cave Park,Oxford
-99.732,38.808,Cedar Bluff State Park - North Shore,Ellis
-99.764,38.772,Cedar Bluff State Park - South Shore,Brownell
-95.609,38.693,Cedar Park - Pomona Reservoir,Ottawa
-96.152,39.703,Centralia Lake,Centralia
-98.114,39.455,Chautauqua Park,Beloit
-97.79,37.753,Cheney State Park - East Shore,Mt.Hope
-97.832,37.724,Cheney State Park - West Shore,Cheney
-95.471,37.284,Cherryvale - Big Hill Lake,Cherryvale
-101.894,37.119,Cimarron,Elkhart
-97.014,39.208,Clay County Park,Wakefield
-95.354,38.942,Clinton State Park,Lawrence
-95.719,38.501,Coeur DAlene - Melvern Lake,Melvern
-97.086,38.391,Cottonwood Point - Marion Lake,Marion
-97.893,39.781,Courtland City Park,Courtland
-94.664,37.476,Crawford State Fishing Lake,Farlington
-94.813,37.644,Crawford State Park,Farlington
-96.936,39.085,Curtis Creek - Milford Lake,Junction City
-95.756,38.248,Dam Site Area - John Redmond Reservoir,Burlington
-96.069,37.646,Damsite - Fall River Lake,El Dorado
-95.104,37.177,Danny Elliott Park,Oswego
-99.947,37.775,Dodge City Roadside Park,Dodge City
-95.736,38.192,Drake City Park,Burlington
-95.078,37.036,East River Park,Chetopa
-95.747,38.536,Eisenhower State Park,Osage City
-96.786,37.833,El Dorado State Park,El Dorado
-95.771,37.256,Elk City State Park,Independence
-98.589,38.361,Ellinwood City Park,Ellinwood
-99.558,38.94,Ellis Lakeside City Campground,Ellis
-95.084,37.047,Elmore Park,Chetopa
-95.241,37.567,Erie City Park,Erie
-96.097,37.652,Fall River State Park,Toronto
-96.901,39.152,Farnum Creek - Milford Lake,Milford
-94.754,37.788,Fort Scott Lake,Fort Scott
-94.715,37.425,Four Oaks RV Park,Pittsburg
-101.337,37.564,Frazier Park,Ulysses
-97.149,38.387,French Creek Cove - Marion Lake,Marion
-96.854,38.894,Geary State Fishing Lake,Junction City
-98.325,39.503,Glen Elder State Park,Glen Elder
-99.311,38.525,Grass Park - La Crosse,Lacrosse
-96.622,39.429,Greenwood Park,Olsburg
-94.723,37.829,Gunn Park,Fort Scott
-97.204,38.055,Harvey County East Park,Newton
-97.583,38.078,Harvey County West Park,Newton
-97.005,38.656,Herrington City Lakes,Herrington
-95.786,38.275,Hickory Creek East - John Redmond Reservoir,Burlington
-95.796,38.271,Hickory Creek West - John Redmond Reservoir,Burlington
-97.108,38.363,Hillsboro Cove - Marion Lake,Marion
-94.888,38.665,Hillsdale State Park,Paola
-98.783,38.514,Hoisington Park,Hoisington
-95.638,38.093,Holiday Park - Le Roy ,Leroy
-95.943,37.754,Holliday Hill - Cross Timbers State Park,Toronto
-97.991,38.667,Horsethief - Kanopolis State Park,Marquette
-95.515,39.671,Horton Mission Lake,Horton
-97.137,39.379,Huntress City Park,Clay Center
-95.288,37.143,Idle Hour Lake,Altamont
-99.958,38.052,Jetmore City Lake,Jetmore
-98.282,39.698,Jewell State Fishing Lake,Jewell
-94.959,38.498,John Brown Memorial Park,Osawatomie
-95.104,37.173,Kamp Siesta,Oswego
-96.493,38.687,Kansas View - Council Cove Lake,Council Grove
-100.002,39.786,Keith Sebelius Lake RA,Norton
-95.736,38.189,Kelley City Park,Burlington
-96.496,38.696,Kit Carson Cove - Council Grove Lake,Council Grove
-97.631,37.614,Lake Afton Park,Goddard
-99.344,37.246,Lake Coldwater,Coldwater
-95.24,38.292,Lake Garnett City Park,Garnett
-94.846,38.596,Lake Miola City Park,Paola
-95.35,37.407,Lake Parsons,Parsons
-95.624,39.004,Lake Shawnee County Campground,Topeka
-97.975,38.604,Langley Point - Kanopolis State Park,Marquette
-94.667,38.369,Linn County Park,LaCygne
-99.579,39.628,Logan Lake City Park,Logan
-95.374,38.838,Lone Star Lake Park,Lawrence
-95.442,39.19,Longview - Perry Lake,Oskaloosa
-95.288,37.143,Louie P. Gartner RA,Altamont
-94.673,38.511,Louisburg Middle Creek State Fishing Lake,Louisburg
-98.051,39.905,Lovewell State Park,Webber
-98.503,38.969,Lucas - Wilson Reservoir,Lucas
-98.692,39.119,Luray North City Park,Luray
-98.21,38.34,Lyons City Campground,Lyons
-98.155,39.67,MAAG Memorial Park,Jewell
-96.149,38.101,Madison City Lake,Madison
-98.215,39.787,Mankato City Park,Mankato
-95.91,37.772,Manns Cove - Cross Timbers State Park,Toronto
-96.993,38.317,Marion County Park,Marion
-97.075,38.381,Marion Cove - Marion Lake,Marion
-95.247,37.338,Marvel Park,Parsons
-96.647,39.839,Marysville City Park,Marysville
-97.249,37.617,McConnell AFB Military,Derby
-97.472,38.476,McPherson State Fishing Lake,Canton
-100.328,37.284,Meade City Park,Meade
-100.438,37.164,Meade State Park,Meade
-98.575,37.278,Medicine Lodge City Park,Medicine Lodge
-95.552,38.66,Michigan Valley - Pomona Reservoir,Michigan Valle
-96.9,39.101,Milford State Park,Milford
-97.711,39.119,Minneapolis City Park,Minneapolis
-98.59,38.936,Minooka - Wilson Reservoir,Dorrance
-96.298,37.364,Moline City Park,Moline
-95.456,37.273,Mound Valley - Big Hill Lake,Cherryvale
-97.173,37.27,Napawalla Park,Oxford
-96.517,38.681,Neosho - Council Cove Lake,Council Grove
-97.039,37.041,Newman Park,Arkansas City
-95.675,37.417,Norman No.1 Museum RV Park,Neodesha
-97.673,38.565,Old Mill - Lindburg,Lindsborg
-95.443,39.225,Old Town - Perry Lake,Oskaloosa
-96.408,39.397,Oregon Trail RV Park,Westmoreland
-94.994,38.528,Osawatomie City Lake,Osawatomie
-97.558,39.105,Ottawa State Fishing Lake,Minneapolis
-95.42,39.11,Outlet - Perry Lake,Perry
-95.783,37.28,Outlet Channel - Elk City Lake,Independence
-95.707,38.515,Outlet Park - Melvern,Melvern
-95.561,38.643,Outlet Park - Pomona Reservoir,Michigan Valle
-95.485,39.144,Perry State Park,Ozawkie
-99.335,39.755,Phillipsburg City Park,Phillipsburg
-94.715,37.425,Pittsburg City,Pittsburg
-95.581,38.654,Pomona State Park,Vassar
-95.781,39.947,Pony Creek Lake,Sabetha
-99.951,39.807,Prairie Dog State Park,Norton
-100.452,37.596,Prairie Wind RV Park,Montezuma
-98.684,37.63,Pratt County Veterans Memorial Park,Pratt
-98.044,39.64,Randall City Park,Randall
-95.763,38.256,Redmond Cove North - John Redmond Reservoir,Burlington
-95.759,38.254,Redmond Cove South - John Redmond Reservoir,Burlington
-96.503,38.709,Richey Cove North - Council Grove Lake,Council Grove
-96.502,38.702,Richey Cove South - Council Grove Lake,Council Grove
-95.589,37.036,Rivercrest - Walter Johnson City Park,Coffeyville
-94.911,39.332,Riverfront City Park,Leavenworth
-97.962,38.607,Riverside - Kanopolis Reservoir,Salina
-95.754,38.25,Riverside East - John Redmond Reservoir,Burlington
-95.756,38.239,Riverside West - John Redmond Reservoir,Burlington
-95.454,39.122,Rock Creek - Perry Lake,Perry
-94.752,37.815,Rock Creek Lake - Fort Scott,Fort Scott
-96.105,37.662,Rock Ridge Cove North - Fall River Lake,Toronto
-95.376,38.891,Rockhaven - Clinton Lake,Lawrence
-97.622,39.829,Rocky Pond City Park,Belleville
-95.798,37.521,Rollin RED Vandever Memorial Park,Fredonia
-96.939,39.06,Rolling Hills - Milford Lake,Junction City
-95.902,39.903,Sabetha Lake,Sabetha
-95.453,37.646,Santa Fe City RV Park,Chanute
-97.053,37.703,Santa Fe Lake - Augusta,Augusta
-96.525,38.685,Santa Fe Trail - Council Grove Lake,Council Grove
-100.495,39.839,Sappa Park,Oberlin
-96.937,39.143,School Creek - Milford Lake,Wakefield
-100.918,38.668,Scott State Park,Scott City
-96.184,37.128,Sedan City Park,Sedan
-95.812,39.217,Shawnee State Fishing Lake,Silver Lake
-100.236,39.36,Sheridan State Fishing Lake,Hoxie
-95.432,39.145,Slough Creek - Perry Lake,Perry
-98.794,39.785,Smith Center Roadside Area,Smith Center
-95.248,38.268,South Lake Veterans Memorial Park - Garnett,Garnett
-95.746,37.867,South Owl Lake,Yates Center
-96.073,39.19,St Marys Riverside Park,St. Marys
-101.8,39.767,St. Francis City Campground,St. Francis
-98.202,38.205,Sterling Lake Park,Sterling
-96.653,39.308,Stockdale - Tuttle Creek Reservoir,Manhattan
-99.28,39.435,Stockton City Park,Stockton
-95.866,38.484,Sun Dance - Melvern Lake,Lebo
-96.534,38.369,Swope Park,Cottonwood Fal
-98.488,38.969,Sylvan - Wilson Reservoir,Lucas
-101.759,37.961,Syracuse Sand Dunes,Syracuse
-95.595,37.036,The Woods - Walter Johnson City Park,Coffeyville
-97.613,38.866,Thomas City Park,Salina
-96.972,39.214,Timber Creek - Milford Lake,Junction City
-95.446,37.296,Timber Hill - Big Hill Lake,Cherryvale
-95.942,37.775,Toronto Point - Cross Timbers State Park,Toronto
-95.789,38.505,Turkey Point  - Melvern Lake,Osage City
-96.633,39.279,Tuttle Creek Cove - Tuttle Creek Lake,Manhattan
-96.589,39.256,Tuttle Creek State Park,Manhattan
-94.756,36.802,Twin Bridges State Rec Area,
-97.988,38.633,Venango - Kanapolis Reservoir,Marquette
-97.028,37.053,Walnut River City Park,Arkansas City
-96.822,37.842,Walnut River RV Park,El Dorado
-95.151,39.535,Warnock Lake Park,Atchison
-97.054,39.809,Washington City Park,Washington
-96.744,39.693,Waterville City,Waterville
-99.449,39.41,Webster State Park,Stockton
-97.52,37.216,Wellington Lake East Rec Area,Wellington
-97.528,37.217,Wellington Lake West Rec Area,Wellington
-95.799,38.219,West Wingwall - John Redmond Reservoir,Burlington
-96.077,37.67,White Hall Bay - Fall River Lake,El Dorado
-95.675,37.697,Wilson State Fishing Lake,Buffalo
-98.495,38.909,Wilson State Park,Sylvan Grove
-96.896,37.346,Winfield City Lake,Winfield
-97.01,37.238,Winfield Fairgrounds RV,Winfield
-95.568,38.676,Wolf Creek - Pomona Reservoir,Michigan Valle
-98.588,38.354,Wolf Pond Park,Ellinwood
-95.436,38.926,Woodridge - Clinton Lake,Lawrence
-98.014,38.644,Yankee Run - Kanopolis Lake,Salina
-95.799,37.835,Yates Center Reservoir,Yates Center
-83.166,42.812,Addison Oaks County Park,Leonard
-88.925,47.04,Agate Beach,Toivola
-83.803,44.574,Alcona Park 1,Glennie
-82.515,42.658,Algonac State Park,Marine City
-84.465,45.524,Aloha State Park,Cheboygan
-84.257,44.407,Ambrose Lake - State Forest,West Branch
-87.493,46.226,Anderson Lake West - Gwinn State Forest,Gwinn
-85.038,46.704,Andrus Lake - State Forest,Paradise
-85.04,42.008,Angel Cove,Coldwater
-83.836,42.507,Appleton Lake - Brighton Rec Area,Brighton
-85.522,44.673,Arbutus No. 4 - State Forest,Traverse City
-83.548,43.281,Arthur Latham Park,Millington
-83.688,44.05,Au Gres City Park,Au Gres
-84.307,46.488,Aune - Osborn RV Park,Sault Ste. Marie
-84.307,46.488,Aune Osborn RV Park,Sault Ste. Marie
-86.838,46.394,Autrain Lake,Au Train
-84.187,44.932,Avery Lake - State Forest,Atlanta
-88.501,46.761,Baraga State Park,Baraga
-85.36,45.11,Barnes County Park,Eastport
-85.284,42.633,Barry Expo Center,Hastings
-87.586,46.263,Bass Lake 1- State Forest,Gwinn
-88.59,46.129,Bates Township Park - Sunset Lake,Iron River
-85.528,44.492,Baxter Bridge - State Forest,Manton
-83.908,43.667,Bay City State Park,Bay City
-86.708,46.442,Bay Furnace,Munising
-84.78,46.45,Bay View,Raco
-86.031,44.148,Bear Track,Irons
-85.495,45.657,Beaver Island - State Forest,Beaver Island
-83.793,44.93,Beaver Lake County Park,Lachine
-85.89,43.669,Benton Lake,White Cloud
-89.574,46.591,Bergland Town Park,Bergland
-85.121,42.975,Bertha Brock County Park,Ionia
-88.428,46.092,Bewabic State Park,Crystal Falls
-84.38,44.945,Big Bear Lake - State Forest,Johannesburg
-84.388,44.942,Big Bear Point - State Forest,Gaylord
-85.582,43.524,Big Bend Park,White Cloud
-88.085,46.865,Big Erics Bridge - State Forest,L'Anse
-85.594,46.039,Big Knob - State Forest,Naubinway
-88.573,46.612,Big Lake State Forest,
-85.078,43.907,Big Mud Lake - State Forest,Lake Station
-84.192,44.927,Big Oaks - State Forest,Atlanta
-85.495,45.656,Bill Wagner Memorial Park,Beaver Island
-83.846,42.502,Bishop Lake - Brighton Rec Area,Pinckney
-84.397,43.71,Black Creek - State Forest,Sanford
-86.12,43.748,Black Lake Co Park,Walkerville
-84.266,45.491,Black Lake Trail Camp - Mackinaw State Forest,Cheboygan
-85.364,46.117,Black River - State Forest,Naubinway
-90.052,46.664,Black River Harbor,Ironwood
-85.071,43.525,Blanchard Millpond Park,Blanchard
-85.762,46.669,Blind Sucker 1 - State Forest,Newberry
-85.755,46.668,Blind Sucker 2 - State Forest,Deer Park
-85.437,43.849,Blodgett Landing,Hersey
-86.193,43.452,Blue Lake County Park,Holton
-88.914,46.662,Bob Lake,Mass City
-89.673,46.359,Bobcat Lake,Marenisco
-85.337,46.706,Bodi Lake - State Forest,Newberry
-89.133,46.408,Bond Falls Flowage,Paulding
-87.272,45.991,Boney Falls,Cornell
-85.94,43.888,Bowman Bridge,Baldwin
-84.99,41.932,Branch County Fairgrounds RV,Coldwater
-85.825,43.914,Bray Creek - State Forest,Baldwin
-84.972,46.008,Brevort Lake,Moran
-84.556,46.413,Brimley State Park,Brimley
-85.685,42.455,Brookside City Park,Otsego
-85.548,43.561,Brower County Park,Stanwood
-85.69,43.639,Brush Lake,White Cloud
-89.053,46.314,Burned Dam,Watersmeet
-84.619,45.401,Burt Lake State Park,Indian River
-84.647,44.663,Burtons Landing - State Forest,Grayling
-86.451,43.935,Buttersville Park,Ludington
-85.367,41.797,Cade Lake County Park,Sturgis
-84.506,43.873,Calhoun City Campground,Beaverton
-83.63,42.58,Camp Dearborn,Milford
-84.776,44.634,Camp Grayling Military - MI ARNG,Grayling
-84.775,45.44,Camp Petosega,Alanson
-86.549,46.059,Camp Seven Lake,Rapid River
-84.464,44.605,Canoe Harbor - State Forest,Grayling
-87.941,45.892,Carney Lake - Crystal Falls State Forest,Iron Mountain
-84.721,46.032,Carp River,St. Ignace
-85.725,44.036,Carrieville - State Forest,Luther
-86.459,43.975,Cartier Park Campground,Ludington
-83.272,43.947,Caseville County Park,Caseville
-84.992,44.613,CCC Bridge - State Forest,Kalkaska
-84.831,45.746,Cecil Lakeview City Park,Cecil
-87.398,45.502,Cedar River North - State Forest,Cedar River
-84.418,45.658,Cheboygan State Park,Cheboygan
-86.495,43.554,Claybanks Township Park,New Era
-84.18,45.133,Clear Lake State Park,Atlanta
-85.346,42.255,Cold Brook County Park,Climax
-84.949,43.664,Coldwater Lake Family Park,Weidman
-86.436,46.221,Colwell Lake Rec Area,Munising
-85.901,43.758,Condon Lake,Bitely
-86.561,46.195,Cookson Lake,Munising
-86.609,46.153,Corner Lake Rec Area,Munising
-88.94,46.752,Courtney Lake,Mass City
-86.326,42.3,Covert Park,Covert
-85.188,44.977,Craven County Park,Kearney
-85.19,43.867,Crittenden County Park,Sears
-85.284,44.328,Crooked Lake County Park,Lake City
-85.665,43.435,Croton Township Park,Newaygo
-85.36,46.695,Culhane Lake - State Forest,Newberry
-90.183,46.464,Curry Park,Ironwood
-86.261,46.459,Cusino Lake - State Forest,Melstrand
-86.02,44.899,D. H. Day - Sleeping Bear Dunes National Lakeshore,Empire
-88.183,46.078,Dawson Lake Park,Crystal Falls
-85.453,42.617,Deep Lake - Yankee Springs State Rec Area,Middleville
-88.324,46.325,Deer Lake - State Forest,Crystal Falls
-84.001,45.958,DeTour - Lake Superior State Forest,De Tour
-85.813,43.613,Diamond Lake Co Park,White Cloud
-85.934,44.203,Dorner Lake,Wellston
-85.997,44.132,Driftwood Valley,Irons
-83.788,45.998,Drummond Island Township Park,Drummond Island
-85.007,44.218,Dyer Lake - State Forest,Falmouth
-85.944,46.466,East Branch Fox River - State Forest,Seney
-85.14,45.156,East Jordan Tourist Park,East Jordan
-83.492,44.278,East Tawas City Park,East Tawas
-86.298,44.252,Eastlake Village Campground,Eastlake
-84.835,42.544,Eaton County Fairgrounds,Charlotte
-85.787,43.421,Ed H. Henning Park,Newaygo
-89.94,46.484,Eddy Park - Sunday Lake,Wakefield
-86.434,42.107,Eden Springs Park Campground,Benton Harbor
-84.428,45.185,Elk Hill Trail Camp - State Forest,Wolverine
-86.035,42.534,Ely Lake - Allegan State Game Area,Allegan
-83.902,45.061,Emerick Park,Hillman
-88.856,46.857,Emily Lake State Forest,Houghton
-86.003,44.788,Empire Township Campground,Empire Airport
-85.171,46.058,Epoufette Township Park,Epoufette
-83.982,45.11,Ess Lake - Mackinaw State Forest,Atlanta
-83.095,43.552,Evergreen County Park,Cass City
-87.438,46.283,Farquar - Metsa Tourist Park,Gwinn
-87.438,46.283,Farquar Metsa Tourist Park - Gwinn,Gwinn
-86.668,45.712,Fayette State Park,Garden
-83.78,43.629,Finn Road Campground,Essexville
-85.314,45.305,Fishermans Island State Park,Charlevoix
-86.707,45.937,Flowing Well Recreation Area,Rapid River
-84.75,45.933,Foley Creek,St. Ignace
-86.869,46.307,Forest Lake - State Forest,Chatham
-85.402,44.673,Forks - State Forest,Williamsburg
-85.338,42.335,Fort Custer State Rec Area,Augusta
-87.87,47.467,Fort Wilkins State Park,Copper Harbor
-87.309,45.472,Fox Co Park,Cedar River
-86.029,46.4,Fox River - State Forest,Seney
-85.965,43.459,Fremont Lake City Park,Fremont
-83.847,44.621,Gabions,Glennie
-85.939,44.778,Garey Lake Trail Camp - State Forest,Empire
-85.295,46.154,Garnet Lake - State Forest,Garnet
-87.866,46.073,Genes Pond - State Forest,Felch
-87.007,45.847,Gladstone Bay,Gladstone
-84.49,43.977,Gladwin City Park,Gladwin
-85.92,43.871,Gleasons Landing,Baldwin
-88.238,46.072,Glidden Lake - Copper Country State Forest,Crystal Falls
-88.883,46.172,Golden Lake,Iron River
-84.84,44.761,Goose Creek Trail Camp - State Forest,Frederic
-85.243,44.357,Goose Lake - State Forest,Lake City
-86.545,46.072,Gooseneck Lake,Rapid River
-85.88,44.26,Government Landing,Brethren
-86.245,43.056,Grand Haven State Park,Grand Haven
-85.848,44.592,Grass Lake - State Forest,Thompsonville
-88.451,47.341,Gratiot River County Park,Ahmeek
-85.065,45.035,Graves Crossing - State Forest,Mancelona
-84.072,42.364,Green Lake - Waterloo State Rec Area,Chelsea
-83.545,42.822,Groveland Oaks County Park,Holly
-85.324,44.716,Guernsey Lake - State Forest,Kalkaska
-85.518,42.617,Gun Lake - Yankee Springs State Rec Area,Middleville
-88.06,46.187,Gust Newberg Park,Channing
-84.613,45.301,Haakwood - State Forest,Wolverine
-83.826,44.403,Hale Plainfield Township Park,Hale
-88.621,47.136,Hancock Rec Area,Hancock
-83.293,44.649,Harrisville State Park,Harrisville
-84.67,44.735,Hartwick Pines State Park,Grayling
-85.362,43.767,Haymarsh State Game Area,Big Rapids Twp.
-85.604,46.625,Headquarters Lake - State Forest,Newberry
-85.993,44.438,Healy Lake - State Forest,Bear Lake
-85.504,44.233,Hemlock,Cadillac
-89.79,46.332,Henry Lake,Marenisco
-84.719,43.801,Herrick Rec Area,Clare
-85.601,46.608,High Bridge - State Forest,Newberry
-85.889,43.771,Highbanks,Bitely
-83.606,42.634,Highland State Rec Area,White Lake
-83.883,45.465,Hoeft State Park,Rogers City
-86.272,43.14,Hoffmaster State Park,Norton Shores
-85.307,46.081,Hog Island Point - State Forest,Naubinway
-85.658,46.615,Holland Lake - State Forest,Newberry
-86.208,42.774,Holland State Park,Holland
-83.525,42.823,Holly State Rec Area,Holly
-85.321,44.482,Hopkins Creek Trail Camp - State Forest,Fife Lake
-86.147,44.424,Hopkins Memorial Park,Bear Lake
-83.765,44.601,Horseshoe Lake,Curran
-84.775,44.401,Houghton Lake - Roscommon State Forest,Houghton Lake
-88.584,47.121,Houghton RV Park,Houghton
-84.57,44.142,House Lake - Tittabawassee State Forest,Gladwin
-86.701,46.291,Hovey Lake Camping Area,Munising
-83.95,43.735,Hoyles Marina and Campground,Linwood
-85.616,43.696,Hungerford Lake,Big Rapids Twp.
-86.165,46.667,Hurricane River - Pictured Rocks National Lakeshor,Munising
-89.071,46.218,Imp Lake,Watersmeet
-85.822,43.672,Indian Lake,White Cloud
-86.404,46.155,Indian River,Manistique
-85.759,44.623,Interlochen State Park,Interlochen
-85.134,42.93,Ionia State Rec Area,Saranac
-88.635,46.092,Iron River RV Park,Iron River
-84.142,44.51,Island Lake - Mio,
-86.651,46.271,Island Lake - Munising,Wetmore
-87.369,45.389,J.W. Wells State Park,Stephenson
-84.161,45.089,Jackson Lake - State Forest,Atlanta
-83.597,44.678,Jewell Lake,Barton City
-86.357,43.705,John Gurney City Park,Hart
-84.408,45.045,Johnsons Crossing Trail Camp - State Forest,Johannesburg
-84.588,44.784,Jones Lake - State Forest,Grayling
-86.018,44.37,Kaleva Village Park,Kaleva
-84.625,44.665,Keystone Landing - State Forest,Grayling
-88.402,46.531,King Lake - Copper County State Forest,Covington
-86.227,46.585,Kingston Lake - State Forest,Grand Marais
-84.461,46.26,Kinross RV Park East,Kinross Charter Twp.
-84.489,46.266,Kinross RV Park West,Kinross Charter Twp.
-87.431,45.319,Kleinke Park,Menominee
-84.58,44.633,Kneff Lake,Grayling
-85.862,44.712,Lake Ann - State Forest,
-88.017,45.839,Lake Antoine Park,Iron Mountain
-85.395,44.412,Lake Billings Campground,Manton
-85.799,44.683,Lake Dubonnet - State Forest,Interlochen
-85.802,44.686,Lake Dubonnet Trail Camp - State Forest,Interlochen
-89.552,46.411,Lake Gogebic County Park,Marenisco
-89.571,46.46,Lake Gogebic State Park,Marenisco
-84.254,41.828,Lake Hudson State Rec Area,Clayton
-84.816,44.656,Lake Margarethe - State Forest,Grayling
-84.696,44.865,Lake Marjory - State Forest,Gaylord
-84.968,45.983,Lake Michigan,St. Ignace
-86.423,44.118,Lake Michigan Rec Area,Free Soil
-90.16,46.149,Lake of the Falls County Park,Mercer
-88.76,46.081,Lake Ottawa,Iron River
-88.723,46.393,Lake Ste. Kathryn,Trout Creek
-85.763,46.677,Lake Superior - State Forest,Grand Marais
-82.497,43.124,Lakeport State Park,Fort Gratiot Twp.
-89.493,46.272,Langford Lake,Watersmeet
-88.436,46.785,Lanse Township Park,Lanse
-85.547,45.21,LeeIanau State Park,Northport
-85.82,43.908,Leverentz Lake - State Forest,Baldwin
-82.795,44.021,Lighthouse County Park,Port Hope
-85.696,44.132,Lincoln Bridge - State Forest,Luther
-86.45,46.164,Little Bass Lake,Manistique
-86.983,45.839,Little Bay De Noc Rec Area,Rapid River
-86.363,46.558,Little Beaver Lake  - Pictured Rocks National Lake,Munising
-85.016,46.019,Little Brevoort Lake (North) - State Forest,Brevort
-85.009,46.015,Little Brevoort Lake (South) - State Forest,Brevort
-90.326,46.607,Little Girls Point County Park,Ironwood
-87.334,46.282,Little Lake - State Forest,Gwinn
-84.28,44.857,Little Wolf Lake - State Forest,Lewiston
-85.151,44.749,Log Lake Co Park,Kalkaska
-85.253,44.355,Long Lake (Missaukee) - State Forest,Lake City
-85.375,44.333,Long Lake (Wexford) - State Forest,Cadillac
-83.449,45.194,Long Lake County Park,Alpena
-85.727,46.276,Luce County Park,Helmer
-86.505,44.033,Ludington State Park,Free Soil
-84.272,44.675,Luzerne Trail Camp,Luzerne
-86.53,46.07,Lyman Lake,Rapid River
-84.064,44.578,Mack Lake,Mio
-84.974,45.373,Magnus Park,Petoskey
-84.847,44.695,Manistee River Bridge - State Forest,Grayling
-84.708,45.488,Maple Bay - State Forest,Brutus
-85.209,44.331,Maple Grove City Park,Lake City
-84.827,43.062,Maple River Campground,Pewamo
-84.896,41.935,Marble Lake County Park,Quincy
-89.093,46.268,Marion Lake 1,Watersmeet
-89.083,46.267,Marion Lake 2,Watersmeet
-85.589,42.335,Markin Glen County Park,Kalamazoo
-87.408,46.571,Marquette Tourist Park,Marquette
-86.426,43.909,Mason County,Ludington
-83.904,44.773,McCollum Lake - State Forest,Curran
-88.609,47.237,McLain State Park,Hancock
-85.987,46.182,Mead Creek - State Forest,Germfask
-87.272,45.991,Mead Paper - Boney Falls,Cornell
-86.44,43.783,Mears State Park,Pentwater
-86.457,43.459,Meinert County Park,Montague
-85.042,41.937,Memorial Park Campground - Coldwater,Coldwater
-85.156,43.804,Merrill Lake Park,Sears
-86.122,46.031,Merwin Creek - State Forest,Gulliver
-83.357,42.945,Metamora - Hadley Rec Area,Metamora
-88.199,46.163,Michigamme Reservoir Site 13,Crystal Falls
-88.178,46.17,Michigamme Reservoir Site 14,Crystal Falls
-88.302,46.175,Michigamme Reservoir Site 19,Crystal Falls
-88.205,46.147,Michigamme Reservoir Site 20,Crystal Falls
-85.793,46.084,Milakokia Lake - State Forest,Naubinway
-85.899,43.627,Minnie Pond,White Cloud
-84.146,44.663,Mio Pond - State Forest,Mio
-85.224,44.339,Missaukee Lake County Park,Lake City
-85.453,44.236,Mitchell State Park,Cadillac
-84.639,46.473,Monocle Lake Rec Area,Bay Mills
-83.62,44.434,Monument,Oscoda
-88.073,46.458,Moose Rapids Township,North Republic
-89.604,46.242,Moosehead Lake,Marenisco
-85.422,46.698,Mouth of Two Hearted River - State Forest,Deer Park
-86.678,46.441,Munising Municipal Tourist Park,Munising
-84.281,46.213,Munuscong River - State Forest,Pickford
-83.814,42.509,Murray Lake - Brighton Rec Area,Brighton
-85.629,46.676,Muskallonge Lake State Park,Newberry
-86.356,43.262,Muskegon State Park,Muskegon
-84.239,44.752,Muskrat Lake - State Forest,Lewiston
-85.579,46.351,Natalie - State Forest,Newberry
-85.585,43.505,Newaygo State Park,Newaygo
-85.904,43.723,Nichols Lake,Bitely
-88.633,47.227,North Canal Township Park,Houghton
-87.385,45.475,North Cedar River State Forest Campground - Escanaba River,Stephenson
-86.306,46.49,North Gemini Lake - State Forest,Shingleton
-84.763,44.512,North Higgins Lake State Park,Roscommon
-88.043,46.285,North Horseshoe Lake - State Forest,Witch Lake
-82.656,43.856,North Park,Harbor Beach
-85.786,44.382,Northern Exposure Campground,Mesick
-88.682,46.416,Norway Lake,Sidnaw
-87.832,46.069,Norway Lake Park,Feltch
-85.45,41.916,Nottawa Park,Centreville
-87.246,45.573,O. B. Fuller County Park,Escanaba
-83.127,43.996,Oak Beach County Park,Port Austin
-84.056,45.394,Ocqueoc Falls - State Forest,Rogers City
-85.852,44.061,Old Grade,Irons
-83.481,44.442,Old Orchard Park,Oscoda
-85.417,44.492,Old US131 - State Forest,Fife Lake
-84.228,45.435,Onaway State Park,Onaway
-89.624,46.549,Ontonagon County Park,Bergland
-89.285,46.889,Ontonagon Township Park,Ontonagon
-86.314,44.283,Orchard Beach State Park,Manistee
-83.403,42.886,Ortonville State Rec Area,Ortonville
-84.138,44.657,Oscoda County Park,Mio
-83.413,44.921,Ossineke - State Forest,Ossineke
-84.7,44.966,Otsego Lake County Park,Gaylord
-84.689,44.933,Otsego Lake State Park,Gaylord
-83.458,43.214,Otter Lake Park,
-85.609,43.504,Oxbow Park,Newaygo
-84.296,44.675,Parmalee Bridge - State Forest,Luzerne
-88.209,46.024,Peavy Pond Site 10,Crystal Falls
-88.223,46.016,Peavy Pond Site 27,Crystal Falls
-88.207,45.99,Peavy Pond Site 9,Crystal Falls
-88.509,46.04,Pentoga Park,Crystal Falls
-88.674,46.364,Perch Lake,Watton
-85.603,46.631,Perch Lake - State Forest,Newberry
-87.729,46.807,Perkins Co Park,Big Bay
-87.728,46.809,Perkins County Park,Big Bay
-85.798,44.202,Peterson Bridge,Wellston
-86.597,46.229,Petes Lake Recreation Area,Wetmore
-84.909,45.404,Petoskey State Park,Petoskey
-85.813,43.773,Pettibone Lake,Bitely
-84.771,43.83,Pettit Park,Clare
-84.973,44.796,Pickerel Lake (Kalkaska) - State Forest,Kalkaska
-84.518,45.178,Pickerel Lake (Otsego) - State Forest,Wolverine
-84.465,45.157,Pigeon Bridge - State Forest,Vanderbilt
-84.429,45.176,Pigeon River - State Forest,Vanderbilt
-85.417,46.644,Pike Lake (Paradise) - State Forest,Newberry
-87.567,46.266,Pike Lake - State Forest,Gwinn
-84.042,42.423,Pinckney State Rec Area,Pinckney
-83.923,43.853,Pinconning County Park,Pinconning
-84.446,45.245,Pine Grove - State Forest,Wolverine
-86.009,44.196,Pine Lake,Wellston
-85.978,42.549,Pine Point - Allegan State Game Area,Allegan
-83.599,44.563,Pine River,Glennie
-86.116,43.53,Pines Point,Hesperia
-85.029,45.017,Pinney Bridge - State Forest,Mancelona
-86.368,43.284,Pioneer Park (Muskegon County),Muskegon
-87.077,45.796,Pioneer Trail Park,Gladstone
-86.117,44.716,Platte River - Sleeping Bear National Lakeshore,Honor
-85.979,44.646,Platte River - State Forest,Honor
-84.35,42.401,Pleasant Lake,Henrietta
-89.574,46.282,Pomeroy Lake,Watersmeet
-83.49,42.687,Pontiac Lake State Rec Area,White Lake Twp.
-83.051,44.007,Port Crescent State Park,Port Austin
-86.535,45.727,Portage Bay - State Forest,Garden
-84.242,42.325,Portage Lake - Waterloo State Rec Area,Grass Lake Charter Twp.
-90.53,46.463,Potato River Falls County Forest,Gurney
-85.023,42.046,Potawatomi Rec Area,Union City
-89.979,46.707,Presque Isle - Porcupine Mountains State Park,Ironwood
-85.657,46.603,Pretty Lake - State Forest,Newberry
-83.529,42.559,Proud Lake State Rec Area,
-84.419,44.671,Rainbow Bend - State Forest,Grayling
-85.516,43.885,Rambadt City Park,Reed City
-85.657,44.18,Ravine,Cadillac
-84.857,44.36,Reedsburg Dam - State Forest,Merritt
-84.028,44.398,Rifle River State Rec Area,Lupton
-87.622,45.104,River Park Campground,Menominee
-83.773,44.461,Rollways,Hale
-85.383,44.071,Rose Lake Park,Tustin
-86.262,46.487,Ross Lake - State Forest,Melstrand
-83.664,44.343,Round Lake,National City
-84.453,45.135,Round Lake - State Forest,Vanderbilt
-88.306,46.102,Runkle Lake,Crystal Falls
-85.937,44.167,Sand Lake - Manistee,Wellston
-85.629,43.5,Sandy Beach County Park,Newaygo
-82.575,43.512,Sanilac County Park - Forester,Port Sanilac
-85.896,43.763,Sawkaw Lake,Bitely
-90.437,46.562,Saxon Harbor County Park,Saxon
-85.457,44.653,Schecks Place - State Forest,Traverse City
-85.447,44.652,Schecks Place Trail Camp - State Forest,Traverse City
-85.267,43.6,School Section Lake Park,Mecosta
-86.279,43.944,Scottville Riverside Park,Scottville
-85.81,44.359,Seaton Creek,Mesick
-83.463,43.737,Sebewaing County Park,Sebewaing
-85.963,46.354,Seney Township,Seney
-83.648,42.817,Seven Lakes State Park,Fenton
-87.817,45.419,Shakey Lakes Park,Stephenson
-86.332,41.953,Shamrock Park,Berrien Springs
-85.064,46.713,Shelldrake Dam - State Forest,Paradise
-84.418,46.487,Sherman City Park,Sault Ste Marie
-84.171,45.239,Shoepac Lake - State Forest,Onaway
-84.479,44.822,Shupac Lake - State Forest,Grayling
-85.685,44.117,Silver Creek - State Forest,Luther
-85.927,42.66,Silver Creek Co Park,Hamilton
-88.019,46.2,Silver Lake,Channing
-86.494,43.662,Silver Lake State Park,Mears
-83.213,43.98,Sleeper State Park,Caseville
-84.408,42.929,Sleepy Hollow State Park,Laingsburg
-84.869,46.351,Soldier Lake Rec Area,Raco
-86.304,46.481,South Gemini Lake - State Forest,Shingleton
-84.678,44.423,South Higgins Lake State Park,Roscommon
-85.791,46.176,South Manistique Lake - State Forest,Curtis
-86.332,45.943,South Shore - Indian Lake State Park,Manistique
-88.947,46.505,Sparrow Rapids,Kenton
-85.363,44.563,Spring Lake - State Forest,Fife Lake
-86.202,43.075,Spring Lake Tourist Park,Spring Lake
-85.538,45.75,St. James Township,Beaver Island
-82.709,43.944,Stafford County Park,Port Hope
-89.177,46.537,Stannard Town Campground,Bruce Crossing
-83.338,41.92,Sterling State Park,Monroe
-84.413,45.392,Stoney Creek Trail Camp - State Forest,Onaway
-84.72,45.857,Straits State Park,St Ignace
-87.68,45.971,Stromberg Park,Hardwood
-87.784,45.616,Sturgeon Bend Town Park,Faithorn
-88.656,46.57,Sturgeon River,Baraga
-84.122,42.344,Sugarloaf Lake - Waterloo State Rec Area,Chelsea
-85.103,43.924,Sulak,Sears
-83.722,45.209,Sunken Lake County Park,Posen
-85.333,44.029,Sunrise Lake Park,LeRoy
-84.643,42.154,Swains Lake,Pulaski
-89.322,46.24,Sylvania - Clark Lake,Watersmeet
-85.036,46.555,Tahquamenon Falls 1 State Park,Paradise
-85.218,46.605,Tahquamenon Falls 2 State Park,Paradise
-86.202,43.075,Tanglefoot - Spring Lake Tourist Park,Spring Lake
-83.443,44.255,Tawas Point State Park,East Tawas
-88.875,46.389,Tepee Lake,Trout Creek
-84.979,46.319,Three Lakes,Sault Ste Mari
-83.558,45.019,Thunder Bay River - State Forest,Alpena
-85.26,45.069,Thurston Co Park,Central Lake
-85.996,43.948,Timber Creek,Branch Twp.
-84.181,45.218,Tomahawk Creek Flooding - State Forest,Onaway
-84.165,45.231,Tomahawk Lake - State Forest,Onaway
-84.361,45.114,Town Corner Lake - State Forest,Johannesburg
-86.353,43.416,Trailway Campground,Montague
-85.551,44.746,Traverse City State Park,Traverse City
-84.569,44.135,Trout Lake - Tittabawassee State Forest,Meredith
-85.043,46.191,Trout Lake City Park,Trout Lake
-86.211,46.643,Twelvemile - Pictured Rocks National Lakeshore,Munising
-84.29,45.537,Twin Lakes - State Forest,Cheboygan
-88.857,46.891,Twin Lakes State Park,Toivola
-85.292,42.652,Tyden City Park,Hastings
-86.08,44.258,Udell Rollways,Wellston
-89.64,46.823,Union Bay - Porcupine Mountains State Park,Ontonagon
-84.839,44.75,Upper Manistee River - State Forest,Frederic
-90.413,46.371,Upson Community Park,Upson
-85.746,43.473,Utley Lake,White Cloud
-86.304,42.335,Van Buren State Park,South Haven
-83.372,44.471,Van Etten Lake - State Forest,Oscoda
-87.989,46.526,Van Riper State Park,Champion
-83.66,43.592,Vanderbilt County Park,Quanicassee
-85.946,44.658,Veterans Memorial - State Forest,Honor
-85.15,44.159,Veterans Memorial Park - Marion,Marion
-87.526,45.699,Veterans Memorial Park - Powers,Powers
-88.404,47.189,Village Park,Lake Linden
-84.131,42.067,W. J. Hayes State Park,Onsted
-85.397,43.135,Wabasis Lake County Park,Rockford
-82.622,43.772,Wagener County Park,Harbor Beach
-84.148,44.554,Wagner Lake,Rose City
-84.374,44.782,Walsh Road Trail Camp - State Forest,Grayling
-86.595,41.901,Warren Dunes State Park,Sawyer
-83.494,42.225,Wayne County Fairgrounds RV,Belleville
-88.259,45.828,WE Energies - site 24,Iron Mountain
-88.255,45.83,WE Energies - site 34,Iron Mountain
-84.721,45.299,Weber Lake - State Forest,Wolverine
-90.394,46.409,Weber Lake County Park,Hurley
-86.575,41.942,Weko Beach,Bridgman
-87.746,46.187,West Branch - State Forest,Ralph
-86.361,45.97,West Shore - Indian Lake State Park,Manistique
-86.156,43.911,Whelan Lake,Walhalla
-85.387,44.817,Whitewater Township Park,Williamsburg
-85.088,45.235,Whiting County Park,Boyne City
-86.627,46.218,Widewaters Rec Area,Munising
-84.9,45.746,Wilderness State Park,Carp Lake
-84.807,44.031,Wilson State Park,Harrison
-83.469,43.122,Wolverine,Columbiaville
-85.24,45.163,Wooden Shoe County Park,Banks
-85.988,46.673,Woodland Park,Grand Marais
-85.042,45.236,Young State Park,Boyne City
-95.94,43.64,Adrian City Park,Adrian
-92.791,44.848,Afton State Park,Hastings
-93.713,46.54,Aitkin County Campground,Aitkin
-94.735,47.003,Akeley City Campground,Akeley
-95.125,44.548,Alexander Ramsey Park,Redwood Falls
-93.907,44.522,Allansons Park,Henderson
-97.004,48.191,Alvarado City Park,Alvarado
-95.618,45.32,Ambush City Park,Benson
-95.857,46.805,American Legion Park - Detroit Lakes,Detroit Lakes
-93.3,47.138,American Legion Park - Warba,Warba
-92.555,46.372,Anderson - Berger Park,Duquette
-95.108,43.527,Anderson - Brown County Parks,Jackson
-94.882,46.699,Andersons Crossing,Nimrod
-93.694,45.425,Ann Lake - Sand Dunes State Forest,Zimmerman
-96.021,45.204,Appleton Municipal Campground,Appleton
-96.021,45.204,Appleton Municipal Park,Appleton
-92.811,48.407,Ash River - Kabetogama State Forest,Orr
-95.4,47.528,Bagley City Park,Bagley
-90.818,47.845,Baker Lake,Tofte
-93.635,45.029,Baker Park Reserve,Maple Plain
-92.848,46.171,Banning State Park,Sandstone
-92.691,46.503,Barnum City Park,Barnum
-93.396,47.79,Bass Lake,Effie
-93.945,44.811,Baylor Co Park,Norwood
-92.038,44.385,Beach Park at Hungry Point,Wabasha
-92.085,47.792,Bear Head Lake State Park,Ely
-93.267,47.678,Bear Lake ? George Washington State Forest,Togo
-91.578,43.64,Beaver Creek Valley State Park,Caledonia
-95.055,44.58,Beaver Falls Co Park,Morton
-94.166,45.748,Benton Beach,Rice
-93.486,46.71,Bergland County Park,Palisade
-95.068,46.268,Bertha City Park,Bertha
-94.511,48.174,Big Bog State Rec Area,Waskish
-93.802,48.195,Big Falls City,Big Falls
-92.499,47.705,Big Rice Lake,Virginia
-96.441,45.555,Big Stone County Toqua Park,Graceville
-96.513,45.383,Big Stone Lake State Park,Ortonville
-94.975,44.575,Birch Coulee Co Park,Morton
-91.781,47.759,Birch Lake,Ely
-94.771,45.773,Birch Lake - Birch Lake State Forest,Melrose
-96.192,43.717,Blue Mounds State Park,Luverne
-96.513,47.293,Bosworth City Park,Ada
-92.418,46.05,Boulder - St Croix State Forest,Hinckley
-93.789,44.184,Bray County Park,Madison Lake
-94.582,43.551,Bright Lake Co Park,Welcome
-96.474,46.87,Buffalo River State Park,Glyndon
-92.781,47.489,Buhl RV Park,Buhl
-94.802,46.457,Bullard Bluff Campsite,Staples
-93.277,45.21,Bunker Hills Regional Park,Anoka
-91.662,47.024,Burlington Bay City Campsite,Two Harbors
-93.288,47.853,Button Box ? George Washington State Forest,Togo
-91.917,47.379,Cadotte Lake,Hoyt Lakes
-95.918,44.354,Camden State Park,Lynd
-94.497,47.422,Camp Cassaway,Cass Lake
-96.279,44.705,Canby Municipal Lake Park,Canby
-96.283,47.532,Cannon Park,Fertile
-92.173,44.116,Carley State Park,Plainview
-93.687,44.867,Carver Park Reserve,Victoria
-90.531,47.833,Cascade River State Park,Lutsen
-94.529,47.38,Cass Lake,Cass Lake
-94.735,43.796,Cedar Hanson Co Park,Trimont
-94.625,45.81,Cedar Lake Memorial Park,Grey Eagle
-95.382,45.641,Chalet - Barsness County Park,Glenwood
-94.392,45.963,Charles Lindbergh State Park,Little Falls
-92.312,43.994,Chester Woods Co Park,Rochester
-95.587,45.994,Chippewa Co Park,Brandon
-94.508,47.382,Chippewa Loop,
-96.835,45.593,City Park - Browns Valley,Browns Valley
-94.95,46.131,Clarissa City Park,Clarissa
-94.511,44.463,Clear Lake Co Park,Gibbon
-95.428,47.697,Clearbrook City Park,Clearbrook
-93.387,44.69,Cleary Lake Regional Park,Prior Lake
-93.98,46.849,Clint Converse - Land OLakes State Forest,Ironton
-93.577,47.61,Clubhouse,Marcell
-94.246,45.049,Collinwood County Park,Cokato
-93.698,47.428,Cottonwood Lake - Bowstring State Forest,Calumet
-90.772,47.825,Crescent Lake,Tofte
-96.602,47.774,Crookston Central Park,Crookston
-93.955,46.48,Crosby Memorial Park,Crosby
-94.335,46.277,Crow Wing State Park,Brainerd
-93.978,46.49,Cuyuna Country State Park - Portsmouth Campground,Ironton
-94.001,43.874,Daly County Park,Mapleton
-96.045,44.935,Dawson City Park,Dawson
-96.394,43.849,DeBates Memorial Park,Jasper
-94.106,47.514,Deer Lake,Deer River
-96.037,46.258,Delagoon Rec Area,Fergus Falls
-94.367,46.093,DeParcq Woods Military - Camp Ripley,Little Falls
-90.463,47.829,Devil Track Lake,Grand Marais
-90.091,48.003,Devilfish Lake - Grand Portage State Forest,Grand Marais
-94.849,46.354,Dower Lake Rec Area,Staples
-96.017,48.782,Durgin Memorial Park,Badger
-94.51,43.991,Eagle Nest Park,St. James
-90.394,48.037,East Bearskin Lake,Grand Marais
-94.096,47.525,East Seelye Bay,Deer River
-92.491,48.17,Echo Lake,Ely
-91.228,47.373,Eckbeck ? Finland State Forest,Finland
-92.504,47.437,Eveleth Veterans Memorial Park,Eveleth
-94.666,43.677,Everett Park,Sherburn
-91.722,47.952,Fall Lake,Ely
-96.046,47.608,Farmers Union,Erskine
-93.488,46.145,Father Hennepin State Park,Isle
-95.154,48.551,Faunce - Beltrami Island SF,Forest Area
-91.915,47.996,Fenske Lake,Ely
-91.241,47.414,Finland - Finland State Forest,Finland
-92.171,47.505,Fishermans Point City Campground,Hoyt Lakes
-94.46,44.295,Flandrau State Park,New Ulm
-92.911,46.93,Floodwood Municipal,Floodwood
-90.408,48.053,Flour Lake,Grand Marais
-92.281,46.66,Fond du Lac City,Duluth
-92.212,43.64,Forestville Mystery Cave State Park,Preston
-94.729,44.452,Fort Ridgely State Park,Fairfax
-95.755,47.574,Fosston City Campground,Fosston
-94.869,46.63,Frames Landing Campsite,Nimrod
-94.059,48.642,Franz Jevne State Park,Birchdale
-92.346,44.533,Frontenac State Park,Frontenac
-95.493,43.792,Fury Island Co Park,Fulda
-92.44,46.405,Garfvert - Nemadji State Forest,Nickerson
-95.746,44.263,Garvin County Park,Garvin
-91.108,47.505,George Crosby - Manitou State Park,Silver Bay
-96.932,48.77,Gilbert Olson Park,Hallock
-94.995,44.463,Gilfillan Estate,Morgan
-95.53,45.541,Glacial Lakes State Park,Starbuck
-95.678,46.312,Glendalough State Park,Battle Lake
-91.467,47.144,Gooseberry Falls State Park,Two Harbors
-90.345,47.746,Grand Marais City RV Park,Grand Marais
-91.409,43.939,Great River Bluffs State Park,Winona
-94.039,46.634,Greer Lake - Crow Wing State Forest,Crosby
-95.623,48.302,Grygla Camping Area,Grygla
-94.834,47.16,Gulch Lake - Paul Bunyan State Forest,Laporte
-94.353,46.411,Gull Lake Recreation Area,Brainerd
-96.601,48.661,Halma City Park,Halma
-92.007,43.558,Harmony City Camping,Harmony
-91.125,47.663,Harriet Lake,Isabella
-93.206,46.951,Hay Lake  - Savanna State Forest,Jacobson
-95.539,48.634,Hayes Lake State Park,Roseau
-96.275,47.283,Heiberg Park,Twin Valley
-96.792,47.269,Hendrum Community Park,Hendrum
-92.193,47.663,Heritage City Park,Embarrass
-92.24,44.877,Highland Ridge - Eau Galle Reservoir,
-93.591,46.993,Hill Lake City Park,Hill City
-95.529,45.608,Hobo Park - Starbuck,Starbuck
-92.291,44.471,Hok Si La City Park,Lake City
-96.303,44.265,Hole in the Mountain County Park,Lake Benton
-96.761,48.204,Holiday City Park - Warren,Warren
-96.193,48.292,Holt Park,Holt
-92.299,47.819,Hoodoo Point City Campground,Tower
-96.302,44.263,Horse Hill Co Park,Lake Benton
-96.942,48.777,Horseshoe Park,Hallock
-91.572,43.766,Houston Nature Center,Houston
-95.183,47.06,Hungryman Lake- Two Inlets State Forest,Park Rapids
-94.928,46.739,Huntersville Forest Landing - Huntersville State Forest,Huntersville
-94.905,46.768,Huntersville Township,Huntersville
-91.847,47.273,Indian Lake - Cloquet Valley State Forest,Two Harbors
-92.185,46.722,Indian Point City Campground,Duluth
-92.668,45.395,Interstate State Park,Taylors Falls
-90.615,48.068,Iron Lake,Grand Marais
-93.192,45.574,Isanti County Fairgrounds,Cambridge
-96.812,48.337,Island Park - Argyle,Argyle
-95.119,43.859,Island Park - Windom,Windom
-94.939,43.944,Island View - Mountain Lake,Mountain Lake
-93.523,47.248,Itasca County Fairgrounds,Grand Rapids
-95.197,47.234,Itasca State Park,Park Rapids
-93.274,47.009,Jacobson County Campground,Jacobson
-92.367,46.655,Jay Cooke State Park,Carlton
-91.839,44.173,John Latsch State Park,Winona
-90.082,47.882,Judge Magney State Park,Grand Marais
-94.98,44.987,Kandiyohi County Park 1,Lillian
-94.915,45.01,Kandiyohi County Park 2,Lillian
-94.863,45.191,Kandiyohi County Park 3,Kandiyohi
-94.873,45.272,Kandiyohi County Park 5,Spicer
-95.09,45.325,Kandiyohi County Park 7,New London
-96.526,48.581,Karlstad Moose Park,Karlstad
-91.103,47.839,Kawishiwi Lake,Ely
-95.065,43.729,Kilen Woods State Park,Lakefield
-90.226,47.863,Kimball Lake,Grand Marais
-94.819,46.533,Knob Hill,Staples
-94.484,47.45,Knutson Dam,Cass Lake
-92.076,44.34,Kruger - Dorer Memorial Hardwood,Wabasha
-95.888,45.02,Lac Qui Parle State Park,Watson
-95.728,44.951,Lagoon Park,Montevideo
-94.566,44.807,Lake Allie Co Park,Buffalo Lake
-94.826,47.539,Lake Bemidji State Park,Bemidji
-96.626,48.725,Lake Bronson State Park,Lake Bronson
-92.949,44.513,Lake Byllesby Regional Park,Cannon Falls
-95.336,46,Lake Carlos State Park,Carlos
-92.897,44.981,Lake Elmo County Park Preserve,Lake Elmo
-94.55,44.118,Lake Hanska County Park,Hanska
-96.434,44.505,Lake Hendricks Park,Hendricks
-92.297,48.132,Lake Jeanette,Ely
-94.728,45.326,Lake Koronis Regional Park,Paynesville
-92.526,43.533,Lake Louise State Park,LeRoy
-94.377,44.786,Lake Marion Co Park,Brownton
-94.528,45.106,Lake Ripley RV,Litchfield
-95.69,44.102,Lake Shetek State Park,Currie
-95.275,44.246,Lamberton City,Lamberton
-96.798,48.863,Lancaster Park,Lancaster
-94.885,44.518,Landing - Franklin City Campground,Franklin
-93.418,47.768,Larson Lake ? George Washington State Forest,Bigfork
-93.187,44.773,Lebanon Hills Regional Park,Apple Valley
-94.225,47.245,Leech Lake Rec Area,Walker
-96.194,48.694,Legion Park,Greenbush
-95.663,43.945,Lime Lake Co Park,Avoca
-96.868,48.442,Lions Club Park -  Stephen,Stephen
-95.809,48.144,Lions Park,Goodridge
-93.62,47.921,Little American Falls,Craigville
-91.423,47.647,Little Isabella River,Isabella
-93.564,48.4,Lofgren Memorial Park,Little Fork
-95.312,47.283,Long Lake County Campground,Shevlin
-93.407,47.686,Lost Lake ? George Washington State Forest,Bigfork
-94.166,46.369,Lum City Park,Brainerd
-94.072,47.05,Mabel Lake,Remer
-94.789,44.463,Mack Lake Co Park,Fairfax
-96.082,43.646,Magnolia City,Magnolia
-95.503,43.809,Maka Oicu County Park,Fulda
-94.937,47.066,Mantrap - Paul Bunyan State Forest,Park Rapids
-94.937,47.066,Mantrap Lake - Paul Bunyan State Forest,Park Rapids
-95.94,46.525,Maplewood State Park,Pelican Rapids
-96.656,48.428,Marshall County Park at Florian,Stephen
-94.387,44.892,Masonic West River Park,Hutchinson
-95.465,44.902,Maynard Lions Park,Maynard
-93.031,47.67,McCarthy Beach State Park,Side Lake
-91.535,47.639,Mcdougal Lake,Isabella
-90.059,48.054,McFarland Lake - Grand Portage State Forest,Grand Marais
-95.882,47.638,McIntosh City Park,McIntosh
-92.273,47.827,McKinley City Park,Soudan
-95.102,46.742,Memorial Forest Park - Menahga,Menahga
-95.541,44.802,Memorial Park - Granite Falls,Granite Falls
-95.007,44.776,Memorial Park - Olivia,Olivia
-96.142,47.701,Mentor City Park,Mentor
-96.166,48.434,Middle River Park,Middle River
-93.761,46.135,Mille Lacs Kathio State Park,Onamia
-94.087,44.159,Minneopa State Park,Mankato
-93.718,44.647,Minnesota Valley Rec Area,Jordan
-95.275,45.321,Monson Lake State Park,Sunburg
-93.672,47.394,Moose Lake - Bowstring State Forest,Deer River
-92.757,46.453,Moose Lake City Park,Moose Lake
-92.736,46.436,Moose Lake State Park,Moose Lake
-94.048,47.518,Mosomo Point,Deer River
-93.309,43.637,Myre  Big Island State Park 2,Albert Lea
-93.289,43.624,Myre Big Island State Park 1,Albert Lea
-93.108,44.342,Nerstrand Big Woods State Park,Nerstrand
-96.325,48.352,Newfolden City Park,Newfolden
-96.079,45.767,Niemackl Lake Park,Herman
-91.073,47.58,Ninemile Lake,Schroeder
-93.968,47.755,Noma Lake,Bigfork
-95.858,47.845,North - Oklee City Park,Oklee
-95.806,44.797,North Park - Clarkfield,Clarkfield
-92.007,43.558,North Park - Harmony,Harmony
-93.652,47.557,North Star,Marcell
-96.882,48.452,Northwest Acres,Stephen
-94.516,47.38,Norway Beach,Cass Lake
-96.261,44.288,Norwegian Creek Co Park,Lake Benton
-94.161,44.759,Oak Leaf Park,Glencoe
-96.416,47.871,Old Crossing Treaty Park,Red Lake Falls
-96.571,48.362,Old Mill State Park,Argyle
-92.872,45.702,Old Railroad Bridge - St. Croix National Scenic River,Rush City
-94.831,46.424,Old Wadena County Park,Staples
-95.635,43.608,Olson City Park,Worthington
-94.044,47.511,Onegume,Deer River
-95.809,44.686,Oraas Co Park,Granite Falls
-92.54,44.168,Oronoco City Park,Oronoco
-97.131,48.193,Oslo City Park,Oslo
-93.394,47.679,Owen Lake ? George Washington State Forest,Bigfork
-92.652,44.084,Oxbow County Park,Byron
-92.574,45.95,Paint Rock Springs - St. Croix State Park,Hinckley
-96.358,48.654,Pelan Pioneer Park,Greenbush
-91.834,43.784,Peterson City RV Park,Peterson
-92.474,47.752,Pfeiffer Lake,Tower
-96.349,44.405,Picnic Point Park,Lake Benton
-94.419,44.976,Piepenburg Co Park,Hutchinson
-94.091,45.978,Pierz Park,Pierz
-93.731,43.641,Pihls County Park,Wells
-92.54,43.711,Pine Lawn Park,Grand Meadow
-94.587,47.732,Pine Tree Park,Blackduck
-94.055,47.439,Plug Hat Point,Deer River
-95.498,44.209,Plum Creek Co Park,Walnut Grove
-96.039,47.911,Plummer Park,Plummer
-93.586,47.251,Pokegama Rec Area,Grand Rapids
-96.176,47.656,Polk County Park,Mentor
-92.481,44.209,Ponderosa,Mazeppa
-91.675,44.075,Prairie Island City Campground,Winona
-94.11,44.092,Rapidan Dam Co Park,Mankato
-97.031,47.932,Red River State Park,East Grand Forks
-93.082,45.17,Rice Creek Chain of Lakes Regional Park,Coon Rapids
-93.064,44.092,Rice Lake State Park,Owatonna
-93.579,45.572,Riverside City Park - Princeton,Princeton
-96.275,47.887,Riverside Park - Red Lake Falls,Red Lake Falls
-93.952,44.322,Riverside Park - St Peter,Ortonville
-92.567,45.952,Riverview - St. Croix State Park,Hinckley
-95.101,43.527,Robertson Co Park,Jackson
-94.484,46.428,Rock Lake - Pillsbury State Forest,Pillager
-96.14,43.871,Rock River City Park,Edgerton
-94.109,46.674,Ronald Cloutier - Cross Lake,Crosslake
-95.75,48.835,Roseau City Park,Roseau
-94.974,44.237,Rothenburg City Park,Springfield
-96.281,46.479,Rothsay City Park,Rothsay
-95.13,44.205,Sailors and Soldiers Memorial Park,Sandborn
-93.538,44.22,Sakatah Lake State Park,Waterville
-93.325,46.788,Sandy Lake Rec Area,McGregor
-95.236,43.715,Sandy Point Co Park,Jackson
-94.807,45.675,Sauk River City Park,Melrose
-93.149,46.826,Savanna Portage State Park,McGregor
-90.887,47.866,Sawbill Lake,Tofte
-93.57,47.715,Scenic State Park,Bigfork
-93.803,47.224,Schoolcraft State Park,Calumet
-94.068,45.284,Schroeder County Park,Annandale
-95.601,43.86,Seven Mile Lake Co Park,Fulda
-94.947,46.792,Shell City Landing - Huntersville State Forest,Menagha
-96.074,46.57,Sherin Memorial City Campground,Pelican Rapids
-92.464,47.484,Sherwood Forest City Campground,Gilbert
-95.04,45.316,Sibley State Park,New London
-94.958,45.74,Sinclair Lewis City Campground,Sauk Centre
-94.125,47.311,Six Mile,Bena
-95.419,44.736,Skalbekken Co Park,Renville
-92.78,45.822,Snake River - Chengwatana State Forest,Pine City
-93.277,46.186,Snake River City Campground,McGrath
-95.384,44.083,South Dutch Charlie Creek,Westbrook
-91.732,47.816,South Kawishiwi River,Ely
-94.588,47.33,South Pike Bay,Cass Lake
-92.465,46.727,Spafford City Park,Cloquet
-92.223,46.715,Spirit Mountain City Campground,Duluth
-96.364,43.898,Split Rock Creek State Park,Jasper
-91.376,47.202,Split Rock Lighthouse State Park,Two Harbors
-96.283,47.891,Sportsman Park - Red Lake Falls,Red Lake Falls
-94.728,44.31,Sportsman Park - Sleepy Eye,Sleepy Eye
-91.644,43.557,Spring Grove City Park,Spring Grove
-95.637,47.512,Spring Lake Park,Lengby
-92.798,44.802,St. Croix Bluffs Regional Park,Hastings
-96.21,48.01,St. Hilaire City Park,St Hilaire
-94.64,43.974,St. James Municipal,St. James
-96.299,44.694,Stone Hill Regional Park,Canby
-94.456,47.137,Stony Point,Walker
-96.17,48.537,Strathcona City Park,Strathcona
-92.78,47.497,Stubler Beach,Buhl
-91.669,47.382,Sullivan Lake ? Finland State Forest,Two Harbors
-95.12,46.439,Sunnybrook Park,Wadena
-95.94,44.167,Swensons Park,Balaton
-95.42,45.4,Swift Falls Co Park,Glenwood
-95.605,44.246,Swift Lake Park,Tracy
-91.976,43.718,Sylvan City Park,Lanesboro
-95.459,43.864,Talcot Lake Co Park,Dundee
-94.121,47.444,Tamarack Point,Bena
-90.88,47.719,Temperance River,Silver Bay
-91.872,47.556,Temperance State Park,
-91.208,47.344,Tettegouche State Park,Silver Bay
-96.186,48.11,Thief River Falls Tourist Park,
-93.238,47.8,Thistledew ? George Washington State Forest,Togo
-95.639,47.628,Tilberg County Park,Fosston
-94.601,48.719,Timber Mill RV Park,Baudette
-95.521,44.696,Timm County Park,Granite Falls
-95.887,45.999,Tipsinah Mounds City Park,Elbow Lake
-90.954,47.713,Toohey Lake,Schroeder
-90.898,48.159,Trails End,Grand Marais
-96.783,45.665,Traverse Co Park,Browns Valley
-94.432,43.825,Truman City Park,Truman
-90.446,47.879,Two Island Lake,Grand Marais
-95.158,45.887,Two Mile Trailer Park and Campground,Osakis
-95.435,44.731,Upper Sioux Agency State Park,Granite Falls
-92.327,47.531,Vermilion Trail,Biwabik
-92.875,45.208,Veterans Campground - Big Marine Lake,Hugo
-96.056,44.926,Veterans Park - Dawson,Dawson
-96.049,47.912,Veterans Park - Plummer,Plummer
-95.232,44.658,Vicksburg Co Park,Renville
-94.804,43.963,Voss Park City Campground,Butterfield
-96.408,46.661,Wagner Park,Barnesville
-92.591,47.898,Wakemup Bay - Kabetogama State Forest,Cook
-94.507,47.387,Wanaki,Cass Lake
-93.3,47.138,Warba American Legion,Warba
-95.307,48.909,Warroad City Campground,Warroad
-93.98,46.85,Washburn Lake - Land OLakes State Forest,Outing
-94.51,48.166,Washkish Park,Washkish
-94.422,44.041,Watona City Park,Madelia
-94.509,47.603,Webster Lake,Blackduck
-96.596,46.265,Welles Memorial Park,Breckenridge
-95.78,44.153,West Lake Sarah County Park,Garvin
-94.102,47.524,West Seelye Bay,Deer River
-92.665,47.491,West Two River,Mountain Iron
-92.144,47.332,Whiteface Reservoir,Hoyt Lakes
-92.043,44.063,Whitewater State Park,Altura
-92.736,45.537,Wild River State Park,Center City
-91.273,43.687,Wildcat Park and Landing,Brownsville
-92.764,45.224,William OBrien State Park,Marine on St. Croix
-94.958,48.772,Williams City Park,Williams
-94.063,47.504,Williams Narrows,Bena
-92.826,46.328,Willow River - Gen Andrews State Forest,Willow River
-94.32,47.426,Winnie,Cass Lake
-94.048,47.43,Winnie Dam,Deer River
-95.363,46.813,Wolf Lake City Campground,Wolf Lake
-93.058,48.483,Woodenfrog - Kabetogama State Forest,Kabetogama Lake
-94.111,43.534,Woods Lake Co Park,Elmore
-94.839,48.861,Zippel Bay State Park,Williams
-92.675,44.3,Zumbrota Covered Bridge Park,Zumbrota
-91.562,37.376,Akers,Salem
-91.448,37.147,Alley Spring - Ozark National Scenic River,Eminence
-92.946,39.063,Arrow Rock State Park,Blackwater
-93.46,36.672,Aunts Creek - Table Rock Lake,Kimberling City
-90.689,38.618,Babler Memorial State Park,Wildwood
-91.706,40.588,Battle of Athens State Park,Athens
-93.498,36.568,Baxter - Table Rock Lake,Lampe
-93.047,36.641,Beaver Creek,Forsyth
-92.859,37.738,Bennett Spring State Park,Lebanon
-93.507,38.212,Berry Bend - Harry S. Truman Lake,Warsaw
-91.062,37.931,Berryman,Potosi
-93.568,36.618,Big Bay - Table Rock Lake,Shell Knob
-95.342,40.086,Big Lake State Park,Craig
-93.678,36.558,Big M - Table Rock Lake,Cassville
-90.996,37.004,Big Spring - Ozark National Scenic River,Van Buren
-92.304,38.59,Binder Park,Jefferson City
-94.351,39.005,Blue Springs County Campground,Blue Springs
-90.79,37.181,Bluff View - Clearwater Lake,Piedmont
-93.525,39.456,Bogard City Park,Bogard
-93.328,39.473,Bosworth City Park,Bosworth
-93.217,36.635,Branson City Campground,Branson
-93.063,39.762,Brookfield City Park,Brookfield
-92.796,36.49,Buck Creek,Protem
-93.6,38.249,Bucksaw - Harry S. Truman Lake,Tightwad
-94.521,39.412,Camp Branch County Campground,Smithville
-93.079,36.909,Camp Ridge,Chadwick
-93.555,36.598,Campbell Point - Table Rock Lake,Shell Knob
-91.516,40.138,Canton City River Park,Canton
-93.53,36.722,Cape Fair - Table Rock Lake,Cape Fair
-93.485,39.365,Carrollton City Park,Carrollton
-93.692,37.578,Cedar Ridge - Stockton Lake,Stockton
-91.773,38.681,Chamois Access - MDC,Chamois
-90.358,36.972,Chaonia/Snow Creek - Lake Wappapello,Poplar Bluff
-93.1,36.892,Cobb Ridge,Chadwick
-90.937,37.724,Council Bluff - Wild Boar Ridge,Belgrade
-93.391,36.566,Cow Creek,Blue Eye
-93.745,37.671,Crabtree Cove - Stockton Lake,Stockton
-93.301,36.483,Cricket Creek,Omaha
-93.671,40.09,Crowder State Park,Trenton
-94.516,39.391,Crows Creek County Campground,Smithville
-90.916,39.031,Cuivre River State Park,Troy 6
-93.312,37.901,Damsite - Pomme de Terre Lake,Hermitage
-90.887,36.675,Deer Leap,Doniphan
-89.411,36.555,Donaldson Point Conservation Area - MDC,New Madrid
-93.108,36.553,Drury-Mincy Conservation Area - MDC,Mincy
-92.126,38.785,Dry Fork,Fulton
-91.161,39.551,Dupont Reservation Conservation Area - MDC,Ashburn
-90.278,36.937,Eagle Point Rec Area - Lake Wappapello,Wappapello
-93.729,36.529,Eagle Rock - Table Rock Lake,Eagle Rock
-93.511,38.529,Farrington City Park,Windsor
-92.33,39.077,Finger Lakes State Park,Columbia
-90.868,36.669,Float Camp,Doniphan
-91.648,39.536,Frank Russell,Perry
-89.609,37.076,General Watkins Conservation Area - MDC,Benton
-91.576,38.909,Graham Cave State Park,Montgomery Cit
-90.454,37.098,Greenville - Lake Wappapello,Greenville
-91.329,36.794,Greer Crossing,Alton
-94.04,39.746,Hamilton City Lake,Hamilton
-94.086,40.393,Harrison County Lake,Bethany
-93.449,38.281,Harry S Truman State Park,Warsaw
-93.787,37.596,Hawker Point - Stockton Lake,Stockton
-90.241,37.834,Hawn State Park,Ste. Genevieve
-91.017,37.838,Hazel Creek,
-91.44,38.699,Hermann City RV Park,Hermann
-93.134,39.429,Herring Memorial Park - Brunswick,Brunswick
-92.773,36.49,Highway 125,Peel
-90.768,37.326,Highway K - Clearwater Lake,Annapolis
-91.732,39.535,Indian Creek,Monroe City
-93.346,36.632,Indian Point - Table Rock Lake,
-91.31,37.23,Jerktail Landing,Eminence
-93.472,36.606,Joe Bald - Table Rock Lake,Kimberling City
-90.849,37.549,Johnsons Shut-Ins State Park,Lesterville
-92.751,39.01,Katy Roundhouse Campground,New Franklin
-90.835,38.58,Klondike County Park,St Charles
-93.577,38.753,Knob Noster State Park,Knob Noster
-89.847,37.282,Lake Girardeau Conservation Area - MDC,Jackson
-94.334,38.952,Lake Jacomo - Fleming Park,Lees Summit
-92.608,38.091,Lake of the Ozarks Military,Linn Creek
-92.573,38.077,Lake of the Ozarks State Park,Kaiser
-90.344,36.942,Lake Wappapello State Park,Williamsville
-91.896,39.153,Lakeview Park - Mexico,Mexico
-94.282,37.484,Lamar City Park,Lamar
-94.447,36.608,Lanagan Access City Park,Lanagan
-91.816,37.799,Lane Spring,Vida
-95.053,39.539,Lewis and Clark State Park,Rushville
-93.364,37.832,Lightfoot Landing - Pomme de Terre Lake,Wheatland
-93.325,38.392,Lincoln City Park,Lincoln
-91.33,37.53,Little Scotia Pond,Salem
-91.265,37.39,Loggers Lake,Bunker
-92.518,39.869,Long Branch State Park,Macon
-93.304,36.52,Long Creek - Table Rock Lake,
-93.474,38.273,Long Shoal - Harry S. Truman Lake,Warsaw
-94.453,38.904,Longview Lake County Campground,Lee's Summit
-90.299,37.017,Lost Creek Landing - Lake Wappapello,Poplar Bluff
-92.464,39.721,Macon Co Park,Macon
-90.54,37.45,Marble Creek Rec Area,Arcadia
-91.79,39.488,Mark Twain State Park,Florida
-90.604,36.981,Markham Springs,Williamsville
-93.666,37.599,Masters Park,Stockton
-92.939,39.438,Maxwell Taylor Park,Keytesville
-91.102,38.207,Meramec State Park,Sullivan
-93.44,36.594,Mill Creek - Table Rock Lake,Kimberling City
-91.516,40.138,Mississippi Riverfront RV Park,Canton
-91.675,37.454,Montauk State Park,Salem
-94.775,40.362,Mozingo Lake County RV Park,Maryville
-93.78,37.54,Mutton Creek Park,Stockton
-93.274,37.864,Nemo Landing - Pomme de Terre Lake,Hermitage
-94.356,36.871,Neosho City Campground,Neosho
-92.154,36.758,North Fork,Dora
-93.323,36.56,Old Highway 86 - Table Rock Lake,Branson
-91.23,38.064,Onondaga Cave State Park,Leasburg
-93.781,37.674,Orleans Trail North Park -Stockton Lake,Stockton
-93.792,37.66,Orleans Trail South Park - Stockton Lake,Stockton
-93.377,38.186,Osage Bluff - Harry S. Truman Lake,Warsaw
-93.698,38.052,Osceola RV Park,Osceola
-93.324,37.901,Outlet Area - Pomme de Terre Lake,Hermitage
-91.175,37.181,Owls Bend - Powder Mill,Ellington
-92.043,37.555,Paddy Creek,Licking
-92.225,36.643,Patrick Bridge Access - MDC,Caulfield
-91.816,38.23,Paydown Access - MDC,Vienna
-90.275,36.944,Peoples Creek - Lake Wappapello,Wappapello
-93.225,39.784,Pershing State Park,Meadville
-90.772,37.143,Piedmont - Clearwater Lake,Piedmont
-92.916,38.872,Pilot Grove City Park,Pilot Grove
-92.144,38.759,Pine Ridge,Ashland
-92.06,37.76,Piney River Military - Fort Leonard Wood,
-93.261,37.841,Pittsburg Park,Pittsburgh
-93.319,37.874,Pomme de Terre State Park,Pittsburg
-92.604,36.51,Pontiac,Gainesville
-90.302,36.964,Possum Creek - Lake Wappapello,Wappapello
-91.175,37.182,Powder Mill  - Ozark National Scenic River,Ellington
-94.574,37.533,Prairie State Park,Mindenmines
-94.354,38.096,Prospect City Park,Rich Hill
-91.475,37.332,Pulltite  - Ozark National Scenic River,Round Spring
-91.667,39.515,Ray Behrens,Hannibal
-91.169,37.813,Red Bluff,Viburnum
-90.287,36.92,Redman Creek - Lake Wappapello,Wappapello
-92.47,36.87,Rippee Conserrvation Area - MDC,Ava
-90.768,37.134,River Road,Piedmont
-93.101,36.679,River Run,Forsyth
-93.837,36.584,Roaring River State Park,Cassville
-91.174,37.129,Roberts Field,Eminence
-90.818,38.42,Robertsville State Park,
-94.692,39.908,Rochester Falls Access - MDC,St. Joseph
-91.821,38.393,Rollins Ferry Access - MDC,Linn
-92.467,39.422,Rothwell Park,Moberly
-92.203,37.826,Roubidoux Springs,Waynesville
-91.406,37.283,Round Spring - Ozark National Scenic River,Round Spring
-93.806,37.52,Ruark Bluff - Stockton Lake,Stockton
-92.8,39.416,Salisbury City Park,Salisbury
-90.505,37.255,Sam A Baker State Park,Des Arc
-94.55,37.088,Schifferdecker Park,Joplin
-91.972,40.009,Sever Lake Conservation Area - MDC,Newark
-93.103,36.684,Shadow Rock Park,Forsyth
-93.42,38.262,Shawnee Bend - Harry S Truman Lake,Warsaw
-92.041,39.721,Shelbina Lake City Park,Shelbina
-90.44,37.56,Silver Mines,Fredericktown
-94.56,39.396,Smiths Fork,Smithville
-93.732,38.293,Sparrowfoot - Harry S. Truman Lake,Clinton
-90.547,37.979,St. Francois State Park,Bonne Terre
-90.537,37.825,St. Joe State Park,Park Hills
-93.762,37.621,Stockton State Park,Stockton
-92.848,39.219,Stump Island Park,Glasgow
-90.427,37.07,Sulphur Springs - Lake Wappapello,Greenville
-91.007,37.477,Sutton Bluff,Centerville
-92.106,36.902,Sycamore Loop Dispersed - Noblett Lake,West Plains
-93.309,36.583,Table Rock State Park,Branson
-93.614,38.136,Talley Bend - Harry S. Truman Lake,Lowry City
-92.654,36.574,Theodosia,Theodosia
-93.401,38.298,Thibaut Point - Harry S. Truman Lake,Warsaw
-92.617,39.624,Thomas Hill Reservoir  - Hwy T Campground - MDC,College Mound
-92.643,40.185,Thousand Hills State Park,Kirksville
-89.485,37.435,Trail of Tears State Park,Cape Girardeau
-91.276,37.19,Two Rivers - Ozark National Scenic River,Eminence
-93.009,40.48,Unionville City RV Park,Unionville
-93.267,39.263,Van Meter State Park,Miami
-92.855,38.43,Versailles City Park,Versailles
-93.677,36.566,Viney Creek,Golden
-93.592,36.561,Viola - Table Rock Lake,Viola
-91.518,40.014,Wakonda State Park,La Grange
-94.213,39.661,Wallace State Park,Cameron
-90.686,38.086,Washington State Park,De Soto
-91.017,37.003,Watercress,Van Buren
-94.258,39.4,Watkins Mill State Park,Kearney
-93.538,37.894,Weaubleau City Park,Weaubleau
-90.812,37.151,Webb Creek - Clearwater Lake,Ellington
-94.871,39.394,Weston Bend State Park,Weston
-93.374,37.88,Wheatland - Pomme de Terre Lake,Hermitage
-93.544,38.36,Windsor Crossing Park,Tightwad
-97.554,46.76,Alice City Park,Alice
-103.588,48.057,American Legion Park - Williston,Williston
-101.278,48.992,Antler Memorial Park,Antler
-97.213,47.102,Arthur Park,Arthur
-99.378,46.033,Ashley RV Park,Ashley
-100.556,46.503,Badger Bay,Linton
-95.471,42.336,Badger Creek Rec Area,
-101.29,47.11,Ball Park RV Park,Center
-102.95,48.872,Baukol - Noonan Trout Pond,Noonan
-101.915,47.459,Beaver Bay Rec Area - Zap,Zap
